timestamp,error_count,device_id,x,y,z,temperature,scaling,x_raw,y_raw,z_raw,is_external
49913915,0,396825,0.25877562,-0.29202166,0.21692826,0.0,0.003,76,-107,77,0
49935585,0,396825,0.255806,-0.29202166,0.22572897,0.0,0.003,75,-107,80,0
49955590,0,396825,0.255806,-0.29202166,0.2227954,0.0,0.003,75,-107,79,0
49977950,0,396825,0.25877562,-0.29202166,0.2139947,0.0,0.003,76,-107,76,0
49999586,0,396825,0.25877562,-0.29502666,0.21986184,0.0,0.003,76,-108,78,0
50022584,0,396825,0.25877562,-0.29502666,0.23159611,0.0,0.003,76,-108,82,0
50045255,0,396825,0.25877562,-0.29202166,0.21986184,0.0,0.003,76,-107,78,0
50069235,0,396825,0.25877562,-0.29502666,0.14945616,0.0,0.003,76,-108,54,0
50093236,0,396825,0.25877562,-0.29202166,0.2227954,0.0,0.003,76,-107,79,0
50117257,0,396825,0.24986671,-0.29502666,0.2521311,0.0,0.003,73,-108,89,0
50137608,0,396825,0.28550228,-0.30404168,0.25506467,0.0,0.003,85,-111,90,0
50158588,0,396825,0.41319633,-0.45729697,0.36947393,0.0,0.003,128,-162,129,0
50179584,0,396825,0.41616598,-0.481337,0.32840392,0.0,0.003,129,-170,115,0
50201619,0,396825,0.39834818,-0.49335706,0.45454746,0.0,0.003,123,-174,158,0
50222590,0,396825,0.3508341,-0.4122219,0.3518725,0.0,0.003,107,-147,123,0
50243590,0,396825,0.3924089,-0.42724693,0.36360678,0.0,0.003,121,-152,127,0
50265970,0,396825,0.38350007,-0.454292,0.36067322,0.0,0.003,118,-161,126,0
50289618,0,396825,0.40725708,-0.478332,0.41054392,0.0,0.003,126,-169,143,0
50313967,0,396825,0.38943928,-0.42724693,0.35773963,0.0,0.003,120,-152,125,0
50337606,0,396825,0.33301634,-0.38818184,0.36360678,0.0,0.003,101,-139,127,0
50359584,0,396825,0.359743,-0.43025193,0.39587605,0.0,0.003,110,-153,138,0
50384629,0,396825,0.2973808,-0.33409175,0.28733394,0.0,0.003,89,-121,101,0
50407601,0,396825,0.335986,-0.43325695,0.3020018,0.0,0.003,102,-154,106,0
50428617,0,396825,0.4102267,-0.44828197,0.3489389,0.0,0.003,127,-159,122,0
50450459,0,396825,0.37162152,-0.49035203,0.28440037,0.0,0.003,114,-173,100,0
50471586,0,396825,0.35677338,-0.4122219,0.36654034,0.0,0.003,109,-147,128,0
50492672,0,396825,0.3775608,-0.40320688,0.3812082,0.0,0.003,116,-144,133,0
50515585,0,396825,0.37162152,-0.43325695,0.26679894,0.0,0.003,114,-154,94,0
50535584,0,396825,0.46368006,-0.5113871,0.6129602,0.0,0.003,145,-180,212,0
50556619,0,396825,0.36271262,-0.42424193,0.36947393,0.0,0.003,111,-151,129,0
50578428,0,396825,0.34489486,-0.44828197,0.35480607,0.0,0.003,105,-159,124,0
50598593,0,396825,0.38943928,-0.5083821,0.36067322,0.0,0.003,120,-179,126,0
50622045,0,396825,0.35677338,-0.39419186,0.3313375,0.0,0.003,109,-141,116,0
50646023,0,396825,0.38053042,-0.4152269,0.39880964,0.0,0.003,117,-148,139,0
50670213,0,396825,0.359743,-0.478332,0.29026753,0.0,0.003,110,-169,102,0
50694062,0,396825,0.4102267,-0.45729697,0.4017432,0.0,0.003,127,-162,140,0
50716632,0,396825,0.34489486,-0.39419186,0.36360678,0.0,0.003,105,-141,127,0
50738705,0,396825,0.3775608,-0.39419186,0.36947393,0.0,0.003,116,-141,129,0
50759584,0,396825,0.359743,-0.5113871,0.30786893,0.0,0.003,110,-180,108,0
50780629,0,396825,0.37459117,-0.4182319,0.39587605,0.0,0.003,115,-149,138,0
50802705,0,396825,0.359743,-0.40020186,0.3724075,0.0,0.003,110,-143,130,0
50823627,0,396825,0.33301634,-0.42724693,0.3020018,0.0,0.003,101,-152,106,0
50844661,0,396825,0.4102267,-0.5444422,0.4516139,0.0,0.003,127,-191,157,0
50864673,0,396825,0.36271262,-0.40621188,0.38707533,0.0,0.003,111,-145,135,0
50886848,0,396825,0.34786448,-0.49636206,0.23159611,0.0,0.003,106,-175,82,0
50908641,0,396825,0.4310141,-0.54143715,0.46628174,0.0,0.003,134,-190,162,0
50928634,0,396825,0.37459117,-0.39118686,0.36947393,0.0,0.003,115,-140,129,0
50950861,0,396825,0.3508341,-0.478332,0.29026753,0.0,0.003,107,-169,102,0
50973585,0,396825,0.4191356,-0.5023721,0.3929425,0.0,0.003,130,-177,137,0
50996620,0,396825,0.3686519,-0.4152269,0.3430718,0.0,0.003,113,-148,120,0
51017584,0,396825,0.34489486,-0.39118686,0.23159611,0.0,0.003,105,-140,82,0
51040606,0,396825,0.3864697,-0.5113871,0.3724075,0.0,0.003,119,-180,130,0
51062835,0,396825,0.34786448,-0.3761618,0.3518725,0.0,0.003,106,-135,123,0
51084622,0,396825,0.38053042,-0.40921688,0.38414177,0.0,0.003,117,-146,134,0
51104631,0,396825,0.39834818,-0.52941716,0.3812082,0.0,0.003,123,-186,133,0
51124637,0,396825,0.34489486,-0.38217184,0.2433304,0.0,0.003,105,-137,86,0
51147218,0,396825,0.38943928,-0.38818184,0.3812082,0.0,0.003,120,-139,133,0
51169584,0,396825,0.3924089,-0.5264121,0.38707533,0.0,0.003,121,-185,135,0
51190843,0,396825,0.34786448,-0.40320688,0.39880964,0.0,0.003,106,-144,139,0
51215021,0,396825,0.35380375,-0.39719686,0.3812082,0.0,0.003,108,-142,133,0
51235630,0,396825,0.38943928,-0.469317,0.30786893,0.0,0.003,120,-166,108,0
51259184,0,396825,0.41319633,-0.43626195,0.4017432,0.0,0.003,128,-155,140,0
51281584,0,396825,0.35677338,-0.40320688,0.3724075,0.0,0.003,109,-144,130,0
51304635,0,396825,0.34489486,-0.40621188,0.29026753,0.0,0.003,105,-145,102,0
51325586,0,396825,0.40725708,-0.52040213,0.41054392,0.0,0.003,126,-183,143,0
51345586,0,396825,0.359743,-0.42424193,0.3518725,0.0,0.003,110,-151,123,0
51366584,0,396825,0.37459117,-0.39419186,0.22572897,0.0,0.003,115,-141,80,0
51390586,0,396825,0.40725708,-0.5474472,0.33427107,0.0,0.003,126,-192,117,0
51413585,0,396825,0.41616598,-0.42123693,0.46334818,0.0,0.003,129,-150,161,0
51433594,0,396825,0.38943928,-0.39719686,0.44574675,0.0,0.003,120,-142,155,0
51453586,0,396825,0.41616598,-0.5113871,0.41054392,0.0,0.003,129,-180,143,0
51476031,0,396825,0.3508341,-0.40621188,0.27559966,0.0,0.003,107,-145,97,0
51498584,0,396825,0.36271262,-0.39118686,0.33427107,0.0,0.003,111,-140,117,0
51521585,0,396825,0.3924089,-0.5264121,0.36947393,0.0,0.003,121,-185,129,0
51542585,0,396825,0.40428746,-0.4182319,0.45748103,0.0,0.003,125,-149,159,0
51564069,0,396825,0.38053042,-0.3791668,0.25506467,0.0,0.003,117,-136,90,0
51586599,0,396825,0.3864697,-0.49035203,0.25506467,0.0,0.003,119,-173,90,0
51609594,0,396825,0.42210522,-0.42724693,0.32840392,0.0,0.003,131,-152,115,0
51630592,0,396825,0.37162152,-0.40621188,0.36947393,0.0,0.003,114,-145,129,0
51653586,0,396825,0.30332005,-0.46030197,0.23746325,0.0,0.003,91,-163,84,0
51674593,0,396825,0.41616598,-0.47532701,0.519086,0.0,0.003,129,-168,180,0
51698585,0,396825,0.35677338,-0.40621188,0.36947393,0.0,0.003,109,-145,129,0
51721591,0,396825,0.3270771,-0.40320688,0.24626397,0.0,0.003,99,-144,87,0
51741595,0,396825,0.4013178,-0.5324221,0.4310789,0.0,0.003,124,-187,150,0
51761586,0,396825,0.37459117,-0.40921688,0.35773963,0.0,0.003,115,-146,125,0
51783585,0,396825,0.36271262,-0.481337,0.34013823,0.0,0.003,111,-170,119,0
51807593,0,396825,0.42507488,-0.50537705,0.44574675,0.0,0.003,132,-178,155,0
51828842,0,396825,0.35677338,-0.40320688,0.38707533,0.0,0.003,109,-144,135,0
51849591,0,396825,0.3508341,-0.43926695,0.36360678,0.0,0.003,107,-156,127,0
51870585,0,396825,0.37162152,-0.45729697,0.36067322,0.0,0.003,114,-162,126,0
51890592,0,396825,0.36568227,-0.4152269,0.38707533,0.0,0.003,112,-148,135,0
51911584,0,396825,0.38350007,-0.5083821,0.3724075,0.0,0.003,118,-179,130,0
51935627,0,396825,0.3508341,-0.42424193,0.2932011,0.0,0.003,107,-151,103,0
51959591,0,396825,0.37162152,-0.39419186,0.39000893,0.0,0.003,114,-141,136,0
51983591,0,396825,0.3686519,-0.4122219,0.35773963,0.0,0.003,113,-147,125,0
52007591,0,396825,0.38053042,-0.52941716,0.39000893,0.0,0.003,117,-186,136,0
52031585,0,396825,0.3864697,-0.40020186,0.29613465,0.0,0.003,119,-143,104,0
52055590,0,396825,0.36271262,-0.42424193,0.33720464,0.0,0.003,111,-151,118,0
52079590,0,396825,0.37459117,-0.4122219,0.3020018,0.0,0.003,115,-147,106,0
52103633,0,396825,0.39834818,-0.52040213,0.4017432,0.0,0.003,123,-183,140,0
52127594,0,396825,0.41319633,-0.43325695,0.43694603,0.0,0.003,128,-154,152,0
52151585,0,396825,0.3686519,-0.40621188,0.4017432,0.0,0.003,113,-145,140,0
52175593,0,396825,0.3508341,-0.39419186,0.36067322,0.0,0.003,107,-141,126,0
52199588,0,396825,0.37459117,-0.5173971,0.3929425,0.0,0.003,115,-182,137,0
52223591,0,396825,0.359743,-0.4182319,0.33427107,0.0,0.003,110,-149,117,0
52245597,0,396825,0.37162152,-0.39419186,0.3724075,0.0,0.003,114,-141,130,0
52266591,0,396825,0.35677338,-0.466312,0.34600535,0.0,0.003,109,-165,121,0
52287584,0,396825,0.41616598,-0.43626195,0.2990682,0.0,0.003,129,-155,105,0
52309637,0,396825,0.37459117,-0.4152269,0.31666964,0.0,0.003,115,-148,111,0
52330585,0,396825,0.36271262,-0.50537705,0.35773963,0.0,0.003,111,-178,125,0
52351585,0,396825,0.41319633,-0.5143921,0.5894917,0.0,0.003,128,-181,204,0
52373914,0,396825,0.3686519,-0.40320688,0.37534106,0.0,0.003,113,-144,131,0
52397631,0,396825,0.3508341,-0.47232202,0.30786893,0.0,0.003,107,-167,108,0
52421914,0,396825,0.4102267,-0.53542715,0.37534106,0.0,0.003,127,-188,131,0
52445651,0,396825,0.3389556,-0.39719686,0.31080252,0.0,0.003,103,-142,109,0
52467585,0,396825,0.37459117,-0.40921688,0.39880964,0.0,0.003,115,-146,139,0
52487592,0,396825,0.3864697,-0.52040213,0.3020018,0.0,0.003,119,-183,106,0
52509626,0,396825,0.36271262,-0.39419186,0.3020018,0.0,0.003,111,-141,106,0
52530586,0,396825,0.38350007,-0.40621188,0.3812082,0.0,0.003,118,-145,133,0
52551586,0,396825,0.38943928,-0.49636206,0.40467677,0.0,0.003,120,-175,141,0
52573937,0,396825,0.3508341,-0.4182319,0.3518725,0.0,0.003,107,-149,123,0
52597608,0,396825,0.37459117,-0.4122219,0.3724075,0.0,0.003,115,-147,130,0
52621929,0,396825,0.36271262,-0.44227198,0.32547036,0.0,0.003,111,-157,114,0
52645694,0,396825,0.3924089,-0.52941716,0.44868034,0.0,0.003,121,-186,156,0
52669968,0,396825,0.335986,-0.39719686,0.3430718,0.0,0.003,102,-142,120,0
52693640,0,396825,0.3686519,-0.39118686,0.34013823,0.0,0.003,113,-140,119,0
52715585,0,396825,0.3775608,-0.43926695,0.31080252,0.0,0.003,116,-156,109,0
52738018,0,396825,0.4310141,-0.5474472,0.4721489,0.0,0.003,134,-192,164,0
52762055,0,396825,0.34489486,-0.39419186,0.33720464,0.0,0.003,105,-141,118,0
52784613,0,396825,0.359743,-0.39719686,0.36654034,0.0,0.003,110,-142,128,0
52806714,0,396825,0.3686519,-0.49636206,0.36360678,0.0,0.003,113,-175,127,0
52827586,0,396825,0.42210522,-0.454292,0.50735176,0.0,0.003,131,-161,176,0
52848632,0,396825,0.38053042,-0.39719686,0.32840392,0.0,0.003,117,-142,115,0
52870760,0,396825,0.35677338,-0.43626195,0.3313375,0.0,0.003,109,-155,116,0
52891628,0,396825,0.41319633,-0.469317,0.40761033,0.0,0.003,128,-166,142,0
52912659,0,396825,0.37162152,-0.40320688,0.39880964,0.0,0.003,114,-144,139,0
52934793,0,396825,0.359743,-0.4182319,0.2697325,0.0,0.003,110,-149,95,0
52955629,0,396825,0.3864697,-0.54143715,0.4516139,0.0,0.003,119,-190,157,0
52978594,0,396825,0.34786448,-0.39419186,0.36654034,0.0,0.003,106,-141,128,0
53000624,0,396825,0.36271262,-0.40020186,0.35773963,0.0,0.003,111,-143,125,0
53022744,0,396825,0.35677338,-0.49035203,0.30493537,0.0,0.003,109,-173,107,0
53046412,0,396825,0.42507488,-0.5264121,0.49561742,0.0,0.003,132,-185,172,0
53068630,0,396825,0.335986,-0.39719686,0.2814668,0.0,0.003,102,-142,99,0
53091586,0,396825,0.35677338,-0.40320688,0.2932011,0.0,0.003,109,-144,103,0
53112640,0,396825,0.3508341,-0.48734704,0.2932011,0.0,0.003,107,-172,103,0
53134721,0,396825,0.40725708,-0.43926695,0.40467677,0.0,0.003,126,-156,141,0
53158713,0,396825,0.3686519,-0.40320688,0.3489389,0.0,0.003,113,-144,122,0
53181591,0,396825,0.3864697,-0.38517684,0.29026753,0.0,0.003,119,-138,102,0
53202828,0,396825,0.40725708,-0.5264121,0.3313375,0.0,0.003,126,-185,116,0
53223589,0,396825,0.3924089,-0.4122219,0.3313375,0.0,0.003,121,-147,116,0
53244619,0,396825,0.359743,-0.39719686,0.2697325,0.0,0.003,110,-142,95,0
53266832,0,396825,0.39834818,-0.5474472,0.35480607,0.0,0.003,123,-192,124,0
53288653,0,396825,0.3508341,-0.49035203,0.37827462,0.0,0.003,107,-173,132,0
53308662,0,396825,0.37162152,-0.40921688,0.36947393,0.0,0.003,114,-146,129,0
53329627,0,396825,0.4013178,-0.5264121,0.39880964,0.0,0.003,124,-185,139,0
53351561,0,396825,0.31222892,-0.38818184,0.3225368,0.0,0.003,94,-139,113,0
53373591,0,396825,0.3686519,-0.39719686,0.3724075,0.0,0.003,113,-142,130,0
53396617,0,396825,0.41319633,-0.5113871,0.3724075,0.0,0.003,128,-180,130,0
53417585,0,396825,0.3924089,-0.4182319,0.2990682,0.0,0.003,121,-149,105,0
53439550,0,396825,0.3775608,-0.39118686,0.36947393,0.0,0.003,116,-140,129,0
53460641,0,396825,0.3270771,-0.48434204,0.3020018,0.0,0.003,99,-171,106,0
53482828,0,396825,0.43398374,-0.481337,0.52201957,0.0,0.003,135,-170,181,0
53503588,0,396825,0.37459117,-0.40921688,0.38707533,0.0,0.003,115,-146,135,0
53524651,0,396825,0.3508341,-0.454292,0.3724075,0.0,0.003,107,-161,130,0
53545584,0,396825,0.4013178,-0.463307,0.39587605,0.0,0.003,124,-164,138,0
53567516,0,396825,0.335986,-0.39719686,0.34600535,0.0,0.003,102,-142,121,0
53588635,0,396825,0.37459117,-0.43325695,0.3518725,0.0,0.003,115,-154,123,0
53608632,0,396825,0.39834818,-0.5083821,0.40761033,0.0,0.003,123,-179,142,0
53628620,0,396825,0.35677338,-0.39719686,0.36654034,0.0,0.003,109,-142,128,0
53649593,0,396825,0.37459117,-0.478332,0.3020018,0.0,0.003,115,-169,106,0
53669585,0,396825,0.38943928,-0.43626195,0.35480607,0.0,0.003,120,-155,124,0
53689586,0,396825,0.359743,-0.4152269,0.40761033,0.0,0.003,110,-148,142,0
53709591,0,396825,0.38943928,-0.5324221,0.3724075,0.0,0.003,120,-187,130,0
53731629,0,396825,0.36271262,-0.42724693,0.44868034,0.0,0.003,111,-152,156,0
53753585,0,396825,0.37459117,-0.4152269,0.38707533,0.0,0.003,115,-148,135,0
53773593,0,396825,0.39537856,-0.5143921,0.28733394,0.0,0.003,122,-181,101,0
53795636,0,396825,0.35380375,-0.42123693,0.33427107,0.0,0.003,108,-150,117,0
53819649,0,396825,0.38350007,-0.40921688,0.41347748,0.0,0.003,118,-146,144,0
53841587,0,396825,0.2973808,-0.49035203,0.3196032,0.0,0.003,89,-173,112,0
53861592,0,396825,0.4280445,-0.42123693,0.38707533,0.0,0.003,133,-150,135,0
53883649,0,396825,0.359743,-0.40921688,0.31373608,0.0,0.003,110,-146,110,0
53905638,0,396825,0.34192523,-0.44227198,0.21692826,0.0,0.003,104,-157,77,0
53925640,0,396825,0.40725708,-0.469317,0.4868167,0.0,0.003,126,-166,169,0
53946643,0,396825,0.37162152,-0.40320688,0.36947393,0.0,0.003,114,-144,129,0
53969585,0,396825,0.3300467,-0.49636206,0.38707533,0.0,0.003,100,-175,135,0
53992346,0,396825,0.3924089,-0.40320688,0.3430718,0.0,0.003,121,-144,120,0
54014585,0,396825,0.38350007,-0.40621188,0.39587605,0.0,0.003,118,-145,138,0
54037585,0,396825,0.31519857,-0.40020186,0.31666964,0.0,0.003,95,-143,111,0
54058585,0,396825,0.40725708,-0.5504522,0.43401247,0.0,0.003,126,-193,151,0
54082585,0,396825,0.36568227,-0.40921688,0.37827462,0.0,0.003,112,-146,132,0
54105592,0,396825,0.3775608,-0.40921688,0.3430718,0.0,0.003,116,-146,120,0
54125586,0,396825,0.39834818,-0.52040213,0.30786893,0.0,0.003,123,-183,108,0
54147583,0,396825,0.34489486,-0.39419186,0.28733394,0.0,0.003,105,-141,101,0
54171591,0,396825,0.3775608,-0.4182319,0.36947393,0.0,0.003,116,-149,129,0
54195625,0,396825,0.3864697,-0.5143921,0.39000893,0.0,0.003,119,-181,136,0
54219594,0,396825,0.4013178,-0.4122219,0.4516139,0.0,0.003,124,-147,157,0
54243591,0,396825,0.3775608,-0.39118686,0.33427107,0.0,0.003,116,-140,117,0
54265591,0,396825,0.359743,-0.43025193,0.22866255,0.0,0.003,110,-153,81,0
54287593,0,396825,0.4013178,-0.5474472,0.4310789,0.0,0.003,124,-192,150,0
54311594,0,396825,0.34786448,-0.39719686,0.38707533,0.0,0.003,106,-142,135,0
54334585,0,396825,0.37162152,-0.39719686,0.36947393,0.0,0.003,114,-142,129,0
54354586,0,396825,0.39834818,-0.5143921,0.3430718,0.0,0.003,123,-181,120,0
54374592,0,396825,0.35677338,-0.38217184,0.34600535,0.0,0.003,109,-137,121,0
54396638,0,396825,0.3864697,-0.39419186,0.35480607,0.0,0.003,119,-141,124,0
54419584,0,396825,0.39834818,-0.5023721,0.39587605,0.0,0.003,123,-177,138,0
54443584,0,396825,0.3508341,-0.42123693,0.34013823,0.0,0.003,107,-150,119,0
54467584,0,396825,0.36568227,-0.38818184,0.36067322,0.0,0.003,112,-139,126,0
54491593,0,396825,0.359743,-0.39719686,0.34013823,0.0,0.003,110,-142,119,0
54514585,0,396825,0.3924089,-0.5143921,0.3929425,0.0,0.003,121,-181,137,0
54534592,0,396825,0.35677338,-0.38818184,0.36067322,0.0,0.003,109,-139,126,0
54555591,0,396825,0.36271262,-0.39419186,0.34600535,0.0,0.003,111,-141,121,0
54577636,0,396825,0.39834818,-0.5143921,0.3196032,0.0,0.003,123,-181,112,0
54598586,0,396825,0.3508341,-0.38818184,0.34600535,0.0,0.003,107,-139,121,0
54619586,0,396825,0.37459117,-0.38818184,0.35773963,0.0,0.003,115,-139,125,0
54641937,0,396825,0.39834818,-0.5234071,0.43401247,0.0,0.003,123,-184,151,0
54665641,0,396825,0.38053042,-0.42123693,0.4428132,0.0,0.003,117,-150,154,0
54689994,0,396825,0.36271262,-0.40921688,0.28733394,0.0,0.003,111,-146,101,0
54713665,0,396825,0.3686519,-0.43626195,0.31666964,0.0,0.003,113,-155,111,0
54737958,0,396825,0.39537856,-0.5324221,0.41934463,0.0,0.003,122,-187,146,0
54761656,0,396825,0.35677338,-0.40020186,0.33720464,0.0,0.003,109,-143,118,0
54783585,0,396825,0.359743,-0.38217184,0.36947393,0.0,0.003,110,-137,129,0
54806591,0,396825,0.3508341,-0.40621188,0.28733394,0.0,0.003,107,-145,101,0
54829258,0,396825,0.4102267,-0.53542715,0.42814532,0.0,0.003,127,-188,149,0
54853223,0,396825,0.34786448,-0.40020186,0.37827462,0.0,0.003,106,-143,132,0
54877229,0,396825,0.38053042,-0.40020186,0.3724075,0.0,0.003,117,-143,130,0
54897624,0,396825,0.3508341,-0.44828197,0.36067322,0.0,0.003,107,-159,126,0
54917595,0,396825,0.3686519,-0.43926695,0.37534106,0.0,0.003,113,-156,131,0
54941419,0,396825,0.3686519,-0.40320688,0.2990682,0.0,0.003,113,-144,105,0
54965258,0,396825,0.36568227,-0.4122219,0.35773963,0.0,0.003,112,-147,125,0
54989259,0,396825,0.4013178,-0.5083821,0.4017432,0.0,0.003,124,-179,140,0
55013244,0,396825,0.439923,-0.5143921,0.601226,0.0,0.003,137,-181,208,0
55036621,0,396825,0.3508341,-0.40921688,0.28733394,0.0,0.003,107,-146,101,0
55059589,0,396825,0.3508341,-0.39118686,0.28440037,0.0,0.003,107,-140,100,0
55082588,0,396825,0.36271262,-0.50537705,0.36947393,0.0,0.003,111,-178,129,0
55103586,0,396825,0.41616598,-0.49035203,0.57482386,0.0,0.003,129,-173,199,0
55126585,0,396825,0.36568227,-0.40020186,0.3929425,0.0,0.003,112,-143,137,0
55148678,0,396825,0.34786448,-0.43626195,0.19345969,0.0,0.003,106,-155,69,0
55170849,0,396825,0.4102267,-0.5324221,0.45454746,0.0,0.003,127,-187,158,0
55194478,0,396825,0.3508341,-0.39719686,0.36067322,0.0,0.003,107,-142,126,0
55216631,0,396825,0.3775608,-0.40320688,0.40467677,0.0,0.003,116,-144,141,0
55239590,0,396825,0.38053042,-0.50537705,0.39587605,0.0,0.003,117,-178,138,0
55262594,0,396825,0.40725708,-0.47532701,0.40761033,0.0,0.003,126,-168,142,0
55284632,0,396825,0.36568227,-0.40020186,0.26679894,0.0,0.003,112,-143,94,0
55306732,0,396825,0.35380375,-0.38217184,0.31080252,0.0,0.003,108,-137,109,0
55330493,0,396825,0.40428746,-0.5234071,0.39000893,0.0,0.003,125,-184,136,0
55352634,0,396825,0.39537856,-0.4152269,0.43694603,0.0,0.003,122,-148,152,0
55375585,0,396825,0.37459117,-0.40020186,0.38414177,0.0,0.003,115,-143,134,0
55396620,0,396825,0.34786448,-0.4182319,0.3489389,0.0,0.003,106,-149,122,0
55418702,0,396825,0.4013178,-0.5474472,0.4516139,0.0,0.003,124,-192,157,0
55439630,0,396825,0.3508341,-0.40320688,0.34013823,0.0,0.003,107,-144,119,0
55462594,0,396825,0.36271262,-0.40320688,0.3489389,0.0,0.003,111,-144,122,0
55483592,0,396825,0.3508341,-0.469317,0.28733394,0.0,0.003,107,-166,101,0
55505592,0,396825,0.42507488,-0.466312,0.55135524,0.0,0.003,132,-165,191,0
55527592,0,396825,0.37162152,-0.40320688,0.40467677,0.0,0.003,114,-144,141,0
55550835,0,396825,0.34786448,-0.36714682,0.36360678,0.0,0.003,106,-132,127,0
55571587,0,396825,0.4191356,-0.5474472,0.4017432,0.0,0.003,130,-192,140,0
55595231,0,396825,0.3508341,-0.40020186,0.36067322,0.0,0.003,107,-143,126,0
55617584,0,396825,0.34786448,-0.39419186,0.2726661,0.0,0.003,106,-141,96,0
55638842,0,396825,0.35380375,-0.5264121,0.38414177,0.0,0.003,108,-185,134,0
55662849,0,396825,0.37162152,-0.38818184,0.36360678,0.0,0.003,114,-139,127,0
55683586,0,396825,0.3686519,-0.40020186,0.3929425,0.0,0.003,113,-143,137,0
55704624,0,396825,0.37459117,-0.49335706,0.3430718,0.0,0.003,115,-174,120,0
55724654,0,396825,0.38943928,-0.4122219,0.28733394,0.0,0.003,120,-147,101,0
55745591,0,396825,0.38350007,-0.40621188,0.36360678,0.0,0.003,118,-145,127,0
55766835,0,396825,0.3864697,-0.5113871,0.3929425,0.0,0.003,119,-180,137,0
55787587,0,396825,0.42210522,-0.40320688,0.48388317,0.0,0.003,131,-144,168,0
55808635,0,396825,0.3686519,-0.40320688,0.38707533,0.0,0.003,113,-144,135,0
55830859,0,396825,0.37459117,-0.481337,0.31666964,0.0,0.003,115,-170,111,0
55852680,0,396825,0.4102267,-0.45729697,0.32840392,0.0,0.003,127,-162,115,0
55873640,0,396825,0.35677338,-0.40621188,0.34600535,0.0,0.003,109,-145,121,0
55896633,0,396825,0.38943928,-0.454292,0.2022604,0.0,0.003,120,-161,72,0
55918854,0,396825,0.3864697,-0.47232202,0.3020018,0.0,0.003,119,-167,106,0
55941585,0,396825,0.34786448,-0.37315685,0.3225368,0.0,0.003,106,-134,113,0
55964644,0,396825,0.36568227,-0.40921688,0.3518725,0.0,0.003,112,-146,123,0
55985585,0,396825,0.3864697,-0.50537705,0.41054392,0.0,0.003,119,-178,143,0
56005587,0,396825,0.34786448,-0.38217184,0.37827462,0.0,0.003,106,-137,132,0
56026591,0,396825,0.35677338,-0.38818184,0.2433304,0.0,0.003,109,-139,86,0
56048633,0,396825,0.3864697,-0.5384322,0.46041462,0.0,0.003,119,-189,160,0
56070592,0,396825,0.34489486,-0.40621188,0.36067322,0.0,0.003,105,-145,126,0
56094586,0,396825,0.38053042,-0.4182319,0.2990682,0.0,0.003,117,-149,105,0
56117584,0,396825,0.3300467,-0.49035203,0.40761033,0.0,0.003,100,-173,142,0
56137593,0,396825,0.4310141,-0.43025193,0.49561742,0.0,0.003,134,-153,172,0
56157596,0,396825,0.37162152,-0.40320688,0.41641104,0.0,0.003,114,-144,145,0
56180086,0,396825,0.39537856,-0.5023721,0.39587605,0.0,0.003,122,-177,138,0
56202592,0,396825,0.4310141,-0.4122219,0.37827462,0.0,0.003,134,-147,132,0
56225586,0,396825,0.359743,-0.40320688,0.3812082,0.0,0.003,110,-144,133,0
56246585,0,396825,0.34489486,-0.44227198,0.27853322,0.0,0.003,105,-157,98,0
56268380,0,396825,0.38350007,-0.5023721,0.46041462,0.0,0.003,118,-177,160,0
56290584,0,396825,0.359743,-0.39719686,0.36360678,0.0,0.003,110,-142,127,0
56313590,0,396825,0.3508341,-0.38818184,0.18465899,0.0,0.003,107,-139,66,0
56334584,0,396825,0.41319633,-0.5264121,0.41641104,0.0,0.003,128,-185,145,0
56357602,0,396825,0.39537856,-0.40921688,0.40467677,0.0,0.003,122,-146,141,0
56378586,0,396825,0.37162152,-0.39419186,0.31373608,0.0,0.003,114,-141,110,0
56402592,0,396825,0.3864697,-0.52040213,0.36947393,0.0,0.003,119,-183,129,0
56425586,0,396825,0.359743,-0.38517684,0.31080252,0.0,0.003,110,-138,109,0
56447590,0,396825,0.37162152,-0.39118686,0.4017432,0.0,0.003,114,-140,140,0
56469586,0,396825,0.3924089,-0.5023721,0.38414177,0.0,0.003,121,-177,134,0
56491585,0,396825,0.3389556,-0.39719686,0.3430718,0.0,0.003,103,-142,120,0
56513586,0,396825,0.36568227,-0.40020186,0.38707533,0.0,0.003,112,-143,135,0
56534592,0,396825,0.3924089,-0.5023721,0.3812082,0.0,0.003,121,-177,133,0
56554584,0,396825,0.3389556,-0.39118686,0.3430718,0.0,0.003,103,-140,120,0
56575584,0,396825,0.359743,-0.39118686,0.3724075,0.0,0.003,110,-140,130,0
56599626,0,396825,0.37459117,-0.5083821,0.41347748,0.0,0.003,115,-179,144,0
56623592,0,396825,0.34786448,-0.42424193,0.34013823,0.0,0.003,106,-151,119,0
56647592,0,396825,0.37459117,-0.39419186,0.3518725,0.0,0.003,115,-141,123,0
56671593,0,396825,0.34786448,-0.39419186,0.3430718,0.0,0.003,106,-141,120,0
56695591,0,396825,0.3924089,-0.5143921,0.41347748,0.0,0.003,121,-181,144,0
56719590,0,396825,0.38053042,-0.39118686,0.40761033,0.0,0.003,117,-140,142,0
56743594,0,396825,0.36568227,-0.4122219,0.4017432,0.0,0.003,112,-147,140,0
56766629,0,396825,0.3686519,-0.40621188,0.30493537,0.0,0.003,113,-145,107,0
56786638,0,396825,0.41319633,-0.5744922,0.38707533,0.0,0.003,128,-201,135,0
56806640,0,396825,0.38350007,-0.43626195,0.3196032,0.0,0.003,118,-155,112,0
56826625,0,396825,0.335986,-0.49636206,0.15825686,0.0,0.003,102,-175,57,0
56846629,0,396825,0.46368006,-0.53542715,0.5249532,0.0,0.003,145,-188,182,0
56867632,0,396825,0.38053042,-0.43325695,0.42814532,0.0,0.003,117,-154,149,0
56890586,0,396825,0.3864697,-0.52941716,0.39880964,0.0,0.003,119,-186,139,0
56913271,0,396825,0.439923,-0.5474472,0.6481631,0.0,0.003,137,-192,224,0
56937271,0,396825,0.38053042,-0.43325695,0.41347748,0.0,0.003,117,-154,144,0
56961263,0,396825,0.39834818,-0.44828197,0.40761033,0.0,0.003,123,-159,142,0
56985283,0,396825,0.4191356,-0.5925222,0.4516139,0.0,0.003,130,-207,157,0
57009435,0,396825,0.39834818,-0.4152269,0.32547036,0.0,0.003,123,-148,114,0
57033266,0,396825,0.41616598,-0.463307,0.42814532,0.0,0.003,129,-164,149,0
57053929,0,396825,0.41319633,-0.5444422,0.41347748,0.0,0.003,128,-191,144,0
57077639,0,396825,0.44586226,-0.49335706,0.3518725,0.0,0.003,139,-174,123,0
57101959,0,396825,0.39537856,-0.463307,0.43694603,0.0,0.003,122,-164,152,0
57125616,0,396825,0.38053042,-0.45729697,0.2726661,0.0,0.003,117,-162,96,0
57147585,0,396825,0.4310141,-0.6135573,0.4516139,0.0,0.003,134,-214,157,0
57167584,0,396825,0.3686519,-0.4152269,0.3430718,0.0,0.003,113,-148,120,0
57190015,0,396825,0.40428746,-0.43626195,0.32547036,0.0,0.003,125,-155,114,0
57211584,0,396825,0.4280445,-0.6015372,0.46334818,0.0,0.003,133,-210,161,0
57233248,0,396825,0.3864697,-0.451287,0.3225368,0.0,0.003,119,-160,113,0
57253943,0,396825,0.3864697,-0.42724693,0.35773963,0.0,0.003,119,-152,125,0
57277646,0,396825,0.4310141,-0.59853226,0.4809496,0.0,0.003,134,-209,167,0
57298585,0,396825,0.38053042,-0.43926695,0.40761033,0.0,0.003,117,-156,142,0
57319585,0,396825,0.42507488,-0.43626195,0.3724075,0.0,0.003,132,-155,130,0
57341914,0,396825,0.439923,-0.6195673,0.4428132,0.0,0.003,137,-216,154,0
57364652,0,396825,0.47852817,-0.5805023,0.6657645,0.0,0.003,150,-203,230,0
57387586,0,396825,0.38350007,-0.44527698,0.46628174,0.0,0.003,118,-158,162,0
57408606,0,396825,0.38350007,-0.50537705,0.2433304,0.0,0.003,118,-178,86,0
57431224,0,396825,0.47555855,-0.6375973,0.5924253,0.0,0.003,149,-222,205,0
57451590,0,396825,0.38350007,-0.43325695,0.42814532,0.0,0.003,118,-154,149,0
57472631,0,396825,0.3924089,-0.5444422,0.21106112,0.0,0.003,121,-191,75,0
57495216,0,396825,0.48446745,-0.59853226,0.5836246,0.0,0.003,152,-209,202,0
57515586,0,396825,0.39834818,-0.451287,0.38707533,0.0,0.003,123,-160,135,0
57536634,0,396825,0.39537856,-0.57148725,0.39880964,0.0,0.003,122,-200,139,0
57559238,0,396825,0.4904067,-0.5534572,0.5249532,0.0,0.003,154,-194,182,0
57579596,0,396825,0.3775608,-0.44227198,0.45748103,0.0,0.003,116,-157,159,0
57603015,0,396825,0.3924089,-0.5324221,0.30786893,0.0,0.003,121,-187,108,0
57625587,0,396825,0.4696193,-0.6736574,0.45454746,0.0,0.003,147,-234,158,0
57647586,0,396825,0.4310141,-0.45729697,0.42814532,0.0,0.003,134,-162,149,0
57671535,0,396825,0.39537856,-0.46030197,0.40467677,0.0,0.003,122,-163,141,0
57693584,0,396825,0.4696193,-0.66764736,0.42521176,0.0,0.003,147,-232,148,0
57715617,0,396825,0.4488319,-0.5835072,0.4310789,0.0,0.003,140,-204,150,0
57738585,0,396825,0.4102267,-0.47232202,0.4017432,0.0,0.003,127,-167,140,0
57762592,0,396825,0.4488319,-0.6345923,0.50441813,0.0,0.003,140,-221,175,0
57785586,0,396825,0.51416373,-0.6646424,0.5982924,0.0,0.003,162,-231,207,0
57805591,0,396825,0.40725708,-0.47532701,0.34600535,0.0,0.003,126,-168,121,0
57825586,0,396825,0.4607104,-0.61656225,0.4310789,0.0,0.003,144,-215,150,0
57848025,0,396825,0.48743707,-0.61656225,0.6276281,0.0,0.003,153,-215,217,0
57870584,0,396825,0.4013178,-0.48734704,0.42521176,0.0,0.003,124,-172,148,0
57893586,0,396825,0.42210522,-0.61656225,0.2990682,0.0,0.003,131,-215,105,0
57914592,0,396825,0.5260423,-0.6436073,0.6452295,0.0,0.003,166,-224,223,0
57936376,0,396825,0.4102267,-0.49936706,0.42521176,0.0,0.003,127,-176,148,0
57958584,0,396825,0.46368006,-0.69469243,0.519086,0.0,0.003,145,-241,180,0
57981585,0,396825,0.5408904,-0.66163737,0.8359116,0.0,0.003,171,-230,288,0
58002591,0,396825,0.41319633,-0.47232202,0.41054392,0.0,0.003,128,-167,143,0
58025586,0,396825,0.46664968,-0.6856774,0.539621,0.0,0.003,146,-238,187,0
58046591,0,396825,0.52010304,-0.6135573,0.4721489,0.0,0.003,164,-214,164,0
58069595,0,396825,0.3864697,-0.469317,0.36360678,0.0,0.003,119,-166,127,0
58090585,0,396825,0.4607104,-0.6315873,0.498551,0.0,0.003,144,-220,173,0
58113591,0,396825,0.43398374,-0.5534572,0.55135524,0.0,0.003,135,-194,191,0
58134585,0,396825,0.37459117,-0.44527698,0.40761033,0.0,0.003,115,-158,142,0
58157585,0,396825,0.4191356,-0.5624722,0.3724075,0.0,0.003,130,-197,130,0
58178584,0,396825,0.42507488,-0.5324221,0.46628174,0.0,0.003,132,-187,162,0
58198592,0,396825,0.34489486,-0.43025193,0.30786893,0.0,0.003,105,-153,108,0
58218594,0,396825,0.359743,-0.481337,0.38707533,0.0,0.003,110,-170,135,0
58238585,0,396825,0.359743,-0.44227198,0.34600535,0.0,0.003,110,-157,121,0
58258591,0,396825,0.34192523,-0.43626195,0.3489389,0.0,0.003,104,-155,122,0
58283585,0,396825,0.34489486,-0.43626195,0.36360678,0.0,0.003,105,-155,127,0
58305183,0,396825,0.36568227,-0.42424193,0.3489389,0.0,0.003,112,-151,122,0
58327584,0,396825,0.34786448,-0.40621188,0.33427107,0.0,0.003,106,-145,117,0
58351584,0,396825,0.35380375,-0.42424193,0.36654034,0.0,0.003,108,-151,128,0
58374592,0,396825,0.35677338,-0.43926695,0.35773963,0.0,0.003,109,-156,125,0
58395585,0,396825,0.359743,-0.43626195,0.36654034,0.0,0.003,110,-155,128,0
58419596,0,396825,0.359743,-0.43626195,0.3929425,0.0,0.003,110,-155,137,0
58443584,0,396825,0.35380375,-0.43626195,0.36067322,0.0,0.003,108,-155,126,0
58467595,0,396825,0.35380375,-0.43926695,0.39000893,0.0,0.003,108,-156,136,0
58491633,0,396825,0.35677338,-0.44527698,0.37534106,0.0,0.003,109,-158,131,0
58515591,0,396825,0.35380375,-0.454292,0.2932011,0.0,0.003,108,-161,103,0
58539593,0,396825,0.37162152,-0.43626195,0.3518725,0.0,0.003,114,-155,123,0
58563592,0,396825,0.36568227,-0.42724693,0.33427107,0.0,0.003,112,-152,117,0
58587591,0,396825,0.359743,-0.43325695,0.36067322,0.0,0.003,110,-154,126,0
58611594,0,396825,0.359743,-0.43926695,0.36654034,0.0,0.003,110,-156,128,0
58635584,0,396825,0.35677338,-0.43926695,0.30786893,0.0,0.003,109,-156,108,0
58657939,0,396825,0.359743,-0.44227198,0.26386538,0.0,0.003,110,-157,93,0
58681643,0,396825,0.36271262,-0.44227198,0.36360678,0.0,0.003,111,-157,127,0
58705926,0,396825,0.3508341,-0.44828197,0.35773963,0.0,0.003,107,-159,125,0
58729653,0,396825,0.3508341,-0.44527698,0.27559966,0.0,0.003,107,-158,97,0
58751585,0,396825,0.36271262,-0.43626195,0.31666964,0.0,0.003,111,-155,111,0
58777640,0,396825,0.36568227,-0.43626195,0.34600535,0.0,0.003,112,-155,121,0
58798586,0,396825,0.34786448,-0.43325695,0.35480607,0.0,0.003,106,-154,124,0
58819586,0,396825,0.359743,-0.44527698,0.33427107,0.0,0.003,110,-158,117,0
58841957,0,396825,0.35677338,-0.451287,0.3430718,0.0,0.003,109,-160,120,0
58865646,0,396825,0.36271262,-0.44828197,0.38707533,0.0,0.003,111,-159,135,0
58886627,0,396825,0.3508341,-0.43926695,0.3430718,0.0,0.003,107,-156,120,0
58907638,0,396825,0.35380375,-0.44227198,0.36067322,0.0,0.003,108,-157,126,0
58929677,0,396825,0.36271262,-0.43325695,0.38707533,0.0,0.003,111,-154,135,0
58953896,0,396825,0.36271262,-0.43325695,0.36654034,0.0,0.003,111,-154,128,0
58977622,0,396825,0.36271262,-0.43626195,0.37534106,0.0,0.003,111,-155,131,0
58999584,0,396825,0.3508341,-0.44828197,0.3929425,0.0,0.003,107,-159,137,0
59022585,0,396825,0.36271262,-0.43926695,0.33427107,0.0,0.003,111,-156,117,0
59043586,0,396825,0.36271262,-0.43025193,0.3489389,0.0,0.003,111,-153,122,0
59065614,0,396825,0.359743,-0.43626195,0.35773963,0.0,0.003,110,-155,125,0
59086586,0,396825,0.359743,-0.451287,0.2726661,0.0,0.003,110,-160,96,0
59106718,0,396825,0.35380375,-0.451287,0.30786893,0.0,0.003,108,-160,108,0
59694851,0,396825,0.35677338,-0.38217184,0.35480607,0.0,0.003,109,-137,124,0
59715586,0,396825,0.34489486,-0.39719686,0.3489389,0.0,0.003,105,-142,122,0
59736617,0,396825,0.39537856,-0.5143921,0.4222782,0.0,0.003,122,-181,147,0
59756606,0,396825,0.37162152,-0.40320688,0.4017432,0.0,0.003,114,-144,140,0
59779216,0,396825,0.34786448,-0.47532701,0.31080252,0.0,0.003,106,-168,109,0
59799594,0,396825,0.42210522,-0.5384322,0.46041462,0.0,0.003,131,-189,160,0
59821585,0,396825,0.34489486,-0.38217184,0.3489389,0.0,0.003,105,-137,122,0
59843587,0,396825,0.36271262,-0.40621188,0.36947393,0.0,0.003,111,-145,129,0
59864676,0,396825,0.38350007,-0.52941716,0.38707533,0.0,0.003,118,-186,135,0
59885629,0,396825,0.34489486,-0.4152269,0.29613465,0.0,0.003,105,-148,104,0
59907596,0,396825,0.3508341,-0.40921688,0.36654034,0.0,0.003,107,-146,128,0
59931222,0,396825,0.3508341,-0.466312,0.33427107,0.0,0.003,107,-165,117,0
59953597,0,396825,0.40725708,-0.48434204,0.44868034,0.0,0.003,126,-171,156,0
59976632,0,396825,0.34786448,-0.3791668,0.36654034,0.0,0.003,106,-136,128,0
59998837,0,396825,0.36568227,-0.39719686,0.36360678,0.0,0.003,112,-142,127,0
60021584,0,396825,0.3508341,-0.478332,0.2139947,0.0,0.003,107,-169,76,0
60044634,0,396825,0.3864697,-0.463307,0.46628174,0.0,0.003,119,-164,162,0
60065595,0,396825,0.359743,-0.38217184,0.3430718,0.0,0.003,110,-137,120,0
60085585,0,396825,0.335986,-0.43626195,0.2990682,0.0,0.003,102,-155,105,0
60105586,0,396825,0.4102267,-0.481337,0.55428886,0.0,0.003,127,-170,192,0
60127662,0,396825,0.37162152,-0.4182319,0.32840392,0.0,0.003,114,-149,115,0
60151647,0,396825,0.34786448,-0.43626195,0.24039683,0.0,0.003,106,-155,85,0
60172649,0,396825,0.39834818,-0.5324221,0.43401247,0.0,0.003,123,-187,151,0
60194584,0,396825,0.34786448,-0.38818184,0.3430718,0.0,0.003,106,-139,120,0
60215592,0,396825,0.3508341,-0.3791668,0.42814532,0.0,0.003,107,-136,149,0
60236625,0,396825,0.3924089,-0.5504522,0.3430718,0.0,0.003,121,-193,120,0
60256642,0,396825,0.36271262,-0.40921688,0.40467677,0.0,0.003,111,-146,141,0
60279639,0,396825,0.359743,-0.37315685,0.32547036,0.0,0.003,110,-134,114,0
60301642,0,396825,0.36568227,-0.49636206,0.33427107,0.0,0.003,112,-175,117,0
60322626,0,396825,0.3508341,-0.45729697,0.5572224,0.0,0.003,107,-162,193,0
60345584,0,396825,0.359743,-0.39419186,0.33720464,0.0,0.003,110,-141,118,0
60366586,0,396825,0.34489486,-0.49035203,0.28440037,0.0,0.003,105,-173,100,0
60389596,0,396825,0.37459117,-0.44227198,0.43401247,0.0,0.003,115,-157,151,0
60410584,0,396825,0.359743,-0.38818184,0.37534106,0.0,0.003,110,-139,131,0
60433592,0,396825,0.34786448,-0.4122219,0.13772187,0.0,0.003,106,-147,50,0
60454592,0,396825,0.40725708,-0.52941716,0.4017432,0.0,0.003,126,-186,140,0
60478585,0,396825,0.32113782,-0.38818184,0.3225368,0.0,0.003,97,-139,113,0
60501595,0,396825,0.36568227,-0.4122219,0.27853322,0.0,0.003,112,-147,98,0
60521586,0,396825,0.2290793,-0.2529566,0.143589,0.0,0.003,66,-94,52,0
60543584,0,396825,0.255806,-0.27098665,0.24626397,0.0,0.003,75,-100,87,0
60567593,0,396825,0.279563,-0.29502666,0.24626397,0.0,0.003,83,-108,87,0
60591651,0,396825,0.2765934,-0.33108675,0.18172541,0.0,0.003,82,-120,65,0
60615592,0,396825,0.28550228,-0.32207173,0.26679894,0.0,0.003,85,-117,94,0
60639592,0,396825,0.2884719,-0.3190667,0.25799823,0.0,0.003,86,-116,91,0
60663584,0,396825,0.28253263,-0.33409175,0.25799823,0.0,0.003,84,-121,91,0
60687584,0,396825,0.29441118,-0.32207173,0.26386538,0.0,0.003,88,-117,93,0
60711585,0,396825,0.279563,-0.33709675,0.18172541,0.0,0.003,83,-122,65,0
60735591,0,396825,0.29441118,-0.32507673,0.26679894,0.0,0.003,88,-118,94,0
60759633,0,396825,0.28550228,-0.32507673,0.2521311,0.0,0.003,85,-118,89,0
60783591,0,396825,0.2884719,-0.33409175,0.27559966,0.0,0.003,86,-121,97,0
60807610,0,396825,0.29441118,-0.3160617,0.22866255,0.0,0.003,88,-115,81,0
60831584,0,396825,0.28253263,-0.33409175,0.25506467,0.0,0.003,84,-121,90,0
60855592,0,396825,0.2973808,-0.3190667,0.26386538,0.0,0.003,89,-116,93,0
60879593,0,396825,0.279563,-0.32808173,0.25506467,0.0,0.003,83,-119,90,0
60902593,0,396825,0.2884719,-0.32808173,0.27559966,0.0,0.003,86,-119,97,0
60925181,0,396825,0.28550228,-0.32507673,0.23452969,0.0,0.003,85,-118,83,0
60945604,0,396825,0.29441118,-0.32507673,0.26093182,0.0,0.003,88,-118,92,0
60965674,0,396825,0.28550228,-0.33409175,0.26386538,0.0,0.003,85,-121,93,0
60990262,0,396825,0.29441118,-0.32507673,0.2726661,0.0,0.003,88,-118,96,0
61013708,0,396825,0.279563,-0.32507673,0.26093182,0.0,0.003,83,-118,92,0
61034585,0,396825,0.2884719,-0.32507673,0.26679894,0.0,0.003,86,-118,94,0
61055591,0,396825,0.28253263,-0.33709675,0.19932684,0.0,0.003,84,-122,71,0
61077669,0,396825,0.28550228,-0.3190667,0.26386538,0.0,0.003,85,-116,93,0
61098590,0,396825,0.29144153,-0.33409175,0.2697325,0.0,0.003,87,-121,95,0
61121234,0,396825,0.279563,-0.32507673,0.25799823,0.0,0.003,83,-118,91,0
61145243,0,396825,0.28550228,-0.33108675,0.2521311,0.0,0.003,85,-120,89,0
61169251,0,396825,0.29144153,-0.33409175,0.22572897,0.0,0.003,87,-121,80,0
61193236,0,396825,0.28550228,-0.33108675,0.24919753,0.0,0.003,85,-120,88,0
61217234,0,396825,0.2973808,-0.33108675,0.26386538,0.0,0.003,89,-120,93,0
61241234,0,396825,0.279563,-0.32507673,0.23452969,0.0,0.003,83,-118,83,0
61261670,0,396825,0.29144153,-0.33108675,0.2726661,0.0,0.003,87,-120,96,0
61282585,0,396825,0.28253263,-0.33709675,0.21986184,0.0,0.003,84,-122,78,0
61303601,0,396825,0.29144153,-0.32808173,0.21986184,0.0,0.003,87,-119,78,0
61325997,0,396825,0.29144153,-0.34010178,0.2022604,0.0,0.003,87,-123,72,0
61349676,0,396825,0.28550228,-0.32207173,0.21692826,0.0,0.003,85,-117,77,0
61373970,0,396825,0.2884719,-0.33709675,0.26679894,0.0,0.003,86,-122,94,0
61397685,0,396825,0.29144153,-0.3190667,0.2697325,0.0,0.003,87,-116,95,0
61419592,0,396825,0.279563,-0.33108675,0.24039683,0.0,0.003,83,-120,85,0
61442824,0,396825,0.29144153,-0.32507673,0.27559966,0.0,0.003,87,-118,97,0
61466797,0,396825,0.279563,-0.33108675,0.2433304,0.0,0.003,83,-120,86,0
61489585,0,396825,0.29144153,-0.33409175,0.2697325,0.0,0.003,87,-121,95,0
61511586,0,396825,0.28550228,-0.33409175,0.20812754,0.0,0.003,85,-121,74,0
61532650,0,396825,0.29144153,-0.32507673,0.26386538,0.0,0.003,87,-118,93,0
61554799,0,396825,0.2884719,-0.33709675,0.2521311,0.0,0.003,86,-122,89,0
61578848,0,396825,0.29144153,-0.32507673,0.2726661,0.0,0.003,87,-118,96,0
61601586,0,396825,0.28550228,-0.33108675,0.26093182,0.0,0.003,85,-120,92,0
61623564,0,396825,0.29441118,-0.32507673,0.19052613,0.0,0.003,88,-118,68,0
61644631,0,396825,0.28253263,-0.33409175,0.25799823,0.0,0.003,84,-121,91,0
61665585,0,396825,0.2884719,-0.32207173,0.2521311,0.0,0.003,86,-117,89,0
61687607,0,396825,0.2884719,-0.32808173,0.2697325,0.0,0.003,86,-119,95,0
61711311,0,396825,0.29144153,-0.32207173,0.24919753,0.0,0.003,87,-117,88,0
61733591,0,396825,0.29144153,-0.33409175,0.20519398,0.0,0.003,87,-121,73,0
61755586,0,396825,0.29144153,-0.32507673,0.2726661,0.0,0.003,87,-118,96,0
61778584,0,396825,0.2884719,-0.33108675,0.26093182,0.0,0.003,86,-120,92,0
61799597,0,396825,0.28550228,-0.32507673,0.24919753,0.0,0.003,85,-118,88,0
61820624,0,396825,0.2973808,-0.32808173,0.28733394,0.0,0.003,89,-119,101,0
61841260,0,396825,0.279563,-0.33709675,0.25506467,0.0,0.003,83,-122,90,0
61861599,0,396825,0.29144153,-0.32507673,0.19345969,0.0,0.003,87,-118,69,0
61883594,0,396825,0.29441118,-0.32808173,0.2697325,0.0,0.003,88,-119,95,0
61907589,0,396825,0.28253263,-0.32808173,0.26679894,0.0,0.003,84,-119,94,0
61931584,0,396825,0.29144153,-0.33409175,0.26679894,0.0,0.003,87,-121,94,0
61954585,0,396825,0.29144153,-0.32207173,0.27559966,0.0,0.003,87,-117,97,0
61974585,0,396825,0.2884719,-0.34010178,0.20519398,0.0,0.003,86,-123,73,0
61995585,0,396825,0.279563,-0.32808173,0.26386538,0.0,0.003,83,-119,93,0
62018585,0,396825,0.29441118,-0.32808173,0.2814668,0.0,0.003,88,-119,99,0
62038585,0,396825,0.2765934,-0.33409175,0.2697325,0.0,0.003,82,-121,95,0
62058585,0,396825,0.29144153,-0.32207173,0.27559966,0.0,0.003,87,-117,97,0
62078585,0,396825,0.29441118,-0.32808173,0.26386538,0.0,0.003,88,-119,93,0
62100633,0,396825,0.28253263,-0.33709675,0.18759255,0.0,0.003,84,-122,67,0
62123591,0,396825,0.29144153,-0.32507673,0.2814668,0.0,0.003,87,-118,99,0
62145715,0,396825,0.28253263,-0.33108675,0.25799823,0.0,0.003,84,-120,91,0
62170249,0,396825,0.2973808,-0.32507673,0.26386538,0.0,0.003,89,-118,93,0
62193704,0,396825,0.279563,-0.32507673,0.24039683,0.0,0.003,83,-118,85,0
62214585,0,396825,0.29441118,-0.33409175,0.2022604,0.0,0.003,88,-121,72,0
62235585,0,396825,0.2884719,-0.33409175,0.17585829,0.0,0.003,86,-121,63,0
62258020,0,396825,0.28550228,-0.32808173,0.20519398,0.0,0.003,85,-119,73,0
62281662,0,396825,0.2884719,-0.33108675,0.2433304,0.0,0.003,86,-120,86,0
62305965,0,396825,0.29441118,-0.32507673,0.26386538,0.0,0.003,88,-118,93,0
62329692,0,396825,0.28253263,-0.32207173,0.18759255,0.0,0.003,84,-117,67,0
62353978,0,396825,0.2884719,-0.33108675,0.2697325,0.0,0.003,86,-120,95,0
62377713,0,396825,0.2884719,-0.32207173,0.26386538,0.0,0.003,86,-117,93,0
62398627,0,396825,0.28253263,-0.33409175,0.2814668,0.0,0.003,84,-121,99,0
62419628,0,396825,0.2884719,-0.32207173,0.2521311,0.0,0.003,86,-117,89,0
62442074,0,396825,0.29441118,-0.33108675,0.19052613,0.0,0.003,88,-120,68,0
62465700,0,396825,0.28550228,-0.33108675,0.19345969,0.0,0.003,85,-120,69,0
62490051,0,396825,0.28550228,-0.33409175,0.24919753,0.0,0.003,85,-121,88,0
62513648,0,396825,0.28550228,-0.3190667,0.25799823,0.0,0.003,85,-116,91,0
62535585,0,396825,0.28253263,-0.33709675,0.26093182,0.0,0.003,84,-122,92,0
62555585,0,396825,0.2884719,-0.33108675,0.2433304,0.0,0.003,86,-120,86,0
62577699,0,396825,0.29144153,-0.32507673,0.2726661,0.0,0.003,87,-118,96,0
62598592,0,396825,0.27362376,-0.33409175,0.26093182,0.0,0.003,81,-121,92,0
62619586,0,396825,0.2973808,-0.3190667,0.26093182,0.0,0.003,89,-116,92,0
62642492,0,396825,0.279563,-0.33409175,0.25799823,0.0,0.003,83,-121,91,0
62663586,0,396825,0.2884719,-0.3190667,0.21986184,0.0,0.003,86,-116,78,0
62684603,0,396825,0.2884719,-0.33108675,0.27853322,0.0,0.003,86,-120,98,0
62706775,0,396825,0.279563,-0.32808173,0.26679894,0.0,0.003,83,-119,94,0
62727586,0,396825,0.2973808,-0.32507673,0.25799823,0.0,0.003,89,-118,91,0
62748628,0,396825,0.279563,-0.33409175,0.25799823,0.0,0.003,83,-121,91,0
62770877,0,396825,0.29441118,-0.32207173,0.25799823,0.0,0.003,88,-117,91,0
62794501,0,396825,0.28253263,-0.34010178,0.22572897,0.0,0.003,84,-123,80,0
62814585,0,396825,0.29144153,-0.32507673,0.27559966,0.0,0.003,87,-118,97,0
62837971,0,396825,0.29144153,-0.33108675,0.2521311,0.0,0.003,87,-120,89,0
62858829,0,396825,0.28550228,-0.32808173,0.2697325,0.0,0.003,85,-119,95,0
62882495,0,396825,0.29144153,-0.33709675,0.25799823,0.0,0.003,87,-122,91,0
62904638,0,396825,0.29144153,-0.33108675,0.21106112,0.0,0.003,87,-120,75,0
62927585,0,396825,0.2884719,-0.33409175,0.2697325,0.0,0.003,86,-121,95,0
62948629,0,396825,0.28550228,-0.32207173,0.2521311,0.0,0.003,85,-117,89,0
62970830,0,396825,0.30035043,-0.33108675,0.2697325,0.0,0.003,90,-120,95,0
62994470,0,396825,0.28253263,-0.32207173,0.25506467,0.0,0.003,84,-117,90,0
63016620,0,396825,0.2973808,-0.34010178,0.19052613,0.0,0.003,89,-123,68,0
63039584,0,396825,0.29144153,-0.33108675,0.2227954,0.0,0.003,87,-120,79,0
63062810,0,396825,0.29144153,-0.33409175,0.26093182,0.0,0.003,87,-121,92,0
63086829,0,396825,0.46368006,-0.38517684,0.47801605,0.0,0.003,145,-138,166,0
63110846,0,396825,0.39834818,-0.469317,0.39587605,0.0,0.003,123,-166,138,0
63131630,0,396825,0.36271262,-0.44227198,0.31080252,0.0,0.003,111,-157,109,0
63155584,0,396825,0.37162152,-0.43626195,0.2932011,0.0,0.003,114,-155,103,0
63176619,0,396825,0.35677338,-0.4182319,0.35773963,0.0,0.003,109,-149,125,0
63197585,0,396825,0.35677338,-0.38818184,0.36654034,0.0,0.003,109,-139,128,0
63219581,0,396825,0.359743,-0.43325695,0.3518725,0.0,0.003,110,-154,123,0
63240623,0,396825,0.4518015,-0.6135573,0.47508246,0.0,0.003,141,-214,165,0
63262824,0,396825,0.4696193,-0.59853226,0.5572224,0.0,0.003,147,-209,193,0
63283586,0,396825,0.5884045,-0.6766624,0.7391038,0.0,0.003,187,-235,255,0
63304619,0,396825,0.74579483,-1.1304183,1.06473,0.0,0.003,240,-386,366,0
63325593,0,396825,0.6567059,-0.8479477,0.9327194,0.0,0.003,210,-292,321,0
63347304,0,396825,0.5794956,-0.73375756,0.6598973,0.0,0.003,184,-254,228,0
63367586,0,396825,0.9536689,-1.031253,1.2554121,0.0,0.003,310,-353,431,0
63389585,0,396825,1.0160311,-0.94110286,1.1146007,0.0,0.003,331,-323,383,0
63411275,0,396825,1.0724541,-1.4789989,1.4226257,0.0,0.003,350,-502,488,0
63431586,0,396825,1.0190008,-1.0613031,1.2202092,0.0,0.003,332,-363,419,0
63453585,0,396825,0.95069927,-1.1995335,1.1058,0.0,0.003,309,-409,380,0
63475566,0,396825,0.89724594,-1.0402681,0.9239187,0.0,0.003,291,-356,318,0
63496620,0,396825,0.9388207,-1.0432731,0.9209851,0.0,0.003,305,-357,317,0
63518592,0,396825,0.95069927,-1.037263,0.94445366,0.0,0.003,309,-355,325,0
63540624,0,396825,0.94475996,-0.995193,0.935653,0.0,0.003,307,-341,322,0
63562585,0,396825,0.9893044,-1.001203,1.0119258,0.0,0.003,322,-343,348,0
63585588,0,396825,0.99227405,-1.034258,0.9209851,0.0,0.003,323,-354,317,0
63606585,0,396825,0.9566385,-1.013223,0.9825901,0.0,0.003,311,-347,338,0
63629585,0,396825,0.95069927,-1.004208,0.9327194,0.0,0.003,309,-344,321,0
63649591,0,396825,0.9566385,-0.992188,0.9737894,0.0,0.003,311,-340,335,0
63671635,0,396825,0.9417904,-1.001203,0.88578224,0.0,0.003,306,-343,305,0
63692636,0,396825,0.8586408,-0.92607784,0.853513,0.0,0.003,278,-318,294,0
63712647,0,396825,0.8051874,-0.8329227,0.8095095,0.0,0.003,260,-287,279,0
63735643,0,396825,0.7339163,-0.7818376,0.71563524,0.0,0.003,236,-270,247,0
63758584,0,396825,0.70422006,-0.74577755,0.7244359,0.0,0.003,226,-258,250,0
63780608,0,396825,0.7131289,-0.7217375,0.77724016,0.0,0.003,229,-250,268,0
63800618,0,396825,0.70422006,-0.7187325,0.7479045,0.0,0.003,226,-249,258,0
63820632,0,396825,0.74579483,-0.74577755,0.70976806,0.0,0.003,240,-258,245,0
63840669,0,396825,0.74579483,-0.7217375,0.77724016,0.0,0.003,240,-250,268,0
63860664,0,396825,0.7665822,-0.73375756,0.7655059,0.0,0.003,247,-254,264,0
63881635,0,396825,0.7517341,-0.76681256,0.77137303,0.0,0.003,242,-265,266,0
63902635,0,396825,0.77846074,-0.7547925,0.7948416,0.0,0.003,251,-261,274,0
63925586,0,396825,0.7547037,-0.76681256,0.7361702,0.0,0.003,243,-265,254,0
63946592,0,396825,0.76064295,-0.7758276,0.8095095,0.0,0.003,245,-268,279,0
63968642,0,396825,0.7339163,-0.7367625,0.8271109,0.0,0.003,236,-255,285,0
63989174,0,396825,0.71015924,-0.7127225,0.8007088,0.0,0.003,228,-247,276,0
64011590,0,396825,0.6745237,-0.6496174,0.7009674,0.0,0.003,216,-226,242,0
64034592,0,396825,0.6626452,-0.6646424,0.7537716,0.0,0.003,212,-231,260,0
64056640,0,396825,0.7220378,-0.68868244,0.6569638,0.0,0.003,232,-239,227,0
64078584,0,396825,0.74876446,-0.7127225,0.6980338,0.0,0.003,241,-247,241,0
64098597,0,396825,0.7636126,-0.73976755,0.73030305,0.0,0.003,246,-256,252,0
64119584,0,396825,0.74876446,-0.7758276,0.77137303,0.0,0.003,241,-268,266,0
64142586,0,396825,0.7665822,-0.76080257,0.874048,0.0,0.003,247,-263,301,0
64162586,0,396825,0.7814304,-0.77883255,0.8593802,0.0,0.003,252,-269,296,0
64184641,0,396825,0.808157,-0.77883255,0.77137303,0.0,0.003,261,-269,266,0
64207602,0,396825,0.79924816,-0.7968626,0.89751655,0.0,0.003,258,-275,309,0
64229586,0,396825,0.81112665,-0.8118877,0.82124376,0.0,0.003,262,-280,283,0
64249588,0,396825,0.808157,-0.79385763,0.8447123,0.0,0.003,261,-274,291,0
64271591,0,396825,0.8022178,-0.7878476,0.85057944,0.0,0.003,259,-272,293,0
64295627,0,396825,0.83191407,-0.8239077,0.874048,0.0,0.003,269,-284,301,0
64319600,0,396825,0.8527015,-0.81489265,0.87111443,0.0,0.003,276,-281,300,0
64343597,0,396825,0.84973186,-0.8209027,0.8593802,0.0,0.003,275,-283,296,0
64367591,0,396825,0.8705193,-0.84494275,0.88578224,0.0,0.003,282,-291,305,0
64391594,0,396825,0.87942815,-0.8359277,0.894583,0.0,0.003,285,-288,308,0
64415591,0,396825,0.86161035,-0.8359277,0.9532544,0.0,0.003,279,-288,328,0
64439591,0,396825,0.8734889,-0.8359277,0.976723,0.0,0.003,283,-288,336,0
64461727,0,396825,0.8705193,-0.82991767,0.94445366,0.0,0.003,282,-286,325,0
64486024,0,396825,0.8675496,-0.8359277,0.90045017,0.0,0.003,281,-288,310,0
64509717,0,396825,0.8527015,-0.8389327,0.8388452,0.0,0.003,276,-289,289,0
64533737,0,396825,0.8853674,-0.84494275,0.87111443,0.0,0.003,287,-291,300,0
64557993,0,396825,0.8823978,-0.8479477,0.93858653,0.0,0.003,286,-292,323,0
64581696,0,396825,0.8734889,-0.8239077,0.97085583,0.0,0.003,283,-284,334,0
64602585,0,396825,0.8913067,-0.8118877,0.9649887,0.0,0.003,289,-280,332,0
64625215,0,396825,0.89427626,-0.8329227,0.9679223,0.0,0.003,290,-287,333,0
64647638,0,396825,0.87645847,-0.8178977,0.9679223,0.0,0.003,284,-282,333,0
64670240,0,396825,0.8913067,-0.79986763,0.90925086,0.0,0.003,289,-276,313,0
64693722,0,396825,0.8853674,-0.8058776,0.9239187,0.0,0.003,287,-278,318,0
64717703,0,396825,0.87942815,-0.8118877,0.9532544,0.0,0.003,285,-280,328,0
64739584,0,396825,0.8913067,-0.8118877,0.8652473,0.0,0.003,289,-280,298,0
64762587,0,396825,0.8527015,-0.8118877,0.94445366,0.0,0.003,276,-280,325,0
64783585,0,396825,0.87645847,-0.7908526,0.95032084,0.0,0.003,284,-273,327,0
64805969,0,396825,0.8823978,-0.80888265,0.976723,0.0,0.003,286,-279,336,0
64829691,0,396825,0.87942815,-0.77282256,0.9209851,0.0,0.003,285,-267,317,0
64853992,0,396825,0.8823978,-0.77883255,0.9679223,0.0,0.003,286,-269,333,0
64877740,0,396825,0.8734889,-0.7818376,0.88284874,0.0,0.003,283,-270,304,0
64901985,0,396825,0.8705193,-0.7878476,0.997258,0.0,0.003,282,-272,343,0
64924611,0,396825,0.87942815,-0.7818376,0.90045017,0.0,0.003,285,-270,310,0
64947586,0,396825,0.8527015,-0.77883255,0.9649887,0.0,0.003,276,-269,332,0
64970073,0,396825,0.8705193,-0.76080257,0.90925086,0.0,0.003,282,-263,313,0
64994058,0,396825,0.8259748,-0.76981753,0.8476459,0.0,0.003,267,-266,292,0
65016603,0,396825,0.8170659,-0.7547925,0.90045017,0.0,0.003,264,-261,310,0
65038805,0,396825,0.84973186,-0.75779754,0.8623137,0.0,0.003,275,-262,297,0
65059585,0,396825,0.82894444,-0.76380754,0.9180516,0.0,0.003,268,-264,316,0
65080629,0,396825,0.8675496,-0.7547925,0.8623137,0.0,0.003,281,-261,297,0
65102798,0,396825,0.8259748,-0.7758276,0.915118,0.0,0.003,267,-268,315,0
65123630,0,396825,0.8705193,-0.82991767,0.90925086,0.0,0.003,282,-286,313,0
65146593,0,396825,0.84973186,-0.76981753,0.93858653,0.0,0.003,275,-266,323,0
65168635,0,396825,0.87942815,-0.7818376,0.8359116,0.0,0.003,285,-270,288,0
65190837,0,396825,0.9061548,-0.7427726,0.80364233,0.0,0.003,294,-257,277,0
65214479,0,396825,0.86458004,-0.7157275,0.6951002,0.0,0.003,280,-248,240,0
65236638,0,396825,0.808157,-0.69469243,0.7332367,0.0,0.003,261,-241,253,0
65259585,0,396825,0.7903393,-0.69769746,0.7684395,0.0,0.003,255,-242,265,0
65280629,0,396825,0.7665822,-0.6736574,0.7273695,0.0,0.003,247,-234,251,0
65302758,0,396825,0.76064295,-0.6736574,0.83297807,0.0,0.003,245,-234,287,0
65326485,0,396825,0.67749333,-0.6195673,0.71856874,0.0,0.003,217,-216,248,0
65348626,0,396825,0.67749333,-0.6496174,0.72150236,0.0,0.003,217,-226,249,0
65370063,0,396825,0.6923415,-0.59552723,0.6246945,0.0,0.003,222,-208,216,0
65392646,0,396825,0.71015924,-0.61656225,0.74203736,0.0,0.003,228,-215,256,0
65413585,0,396825,0.7576733,-0.66163737,0.77137303,0.0,0.003,244,-230,266,0
65434833,0,396825,0.78736967,-0.69168746,0.74203736,0.0,0.003,254,-240,256,0
65457591,0,396825,0.8586408,-0.7127225,0.83004445,0.0,0.003,278,-247,286,0
65479586,0,396825,0.89427626,-0.7427726,0.85057944,0.0,0.003,290,-257,293,0
65503601,0,396825,0.9061548,-0.76380754,0.8388452,0.0,0.003,294,-264,289,0
65527296,0,396825,0.8823978,-0.77883255,0.8681809,0.0,0.003,286,-269,299,0
65549586,0,396825,0.87645847,-0.8118877,0.9532544,0.0,0.003,284,-280,328,0
65571602,0,396825,0.8823978,-0.81489265,0.935653,0.0,0.003,286,-281,322,0
65594843,0,396825,0.8823978,-0.77282256,0.9591216,0.0,0.003,286,-267,330,0
65618817,0,396825,0.8586408,-0.7878476,0.9239187,0.0,0.003,278,-272,318,0
65642828,0,396825,0.89427626,-0.7758276,0.95618796,0.0,0.003,290,-268,329,0
65663630,0,396825,0.89724594,-0.77282256,0.8271109,0.0,0.003,291,-267,285,0
65687581,0,396825,0.9239726,-0.76080257,0.8388452,0.0,0.003,300,-263,289,0
65708640,0,396825,0.90021557,-0.7758276,0.82124376,0.0,0.003,292,-268,283,0
65729585,0,396825,0.888337,-0.74577755,0.894583,0.0,0.003,288,-258,308,0
65751580,0,396825,0.8705193,-0.73375756,0.8241773,0.0,0.003,282,-254,284,0
65772644,0,396825,0.89724594,-0.7487826,0.853513,0.0,0.003,291,-259,294,0
65794799,0,396825,0.87645847,-0.7758276,0.8359116,0.0,0.003,284,-268,288,0
65815586,0,396825,0.8675496,-0.7277475,0.85057944,0.0,0.003,281,-252,293,0
65836634,0,396825,0.86161035,-0.7307525,0.92978585,0.0,0.003,279,-253,320,0
65856635,0,396825,0.8556711,-0.76080257,0.9121844,0.0,0.003,277,-263,314,0
65878592,0,396825,0.8913067,-0.72474253,0.84177876,0.0,0.003,289,-251,290,0
65899606,0,396825,0.89427626,-0.7427726,0.77137303,0.0,0.003,290,-257,266,0
65920633,0,396825,0.8734889,-0.73976755,0.8447123,0.0,0.003,283,-256,291,0
65940678,0,396825,0.87942815,-0.7217375,0.82124376,0.0,0.003,285,-250,283,0
65962591,0,396825,0.8734889,-0.74577755,0.90925086,0.0,0.003,283,-258,313,0
65984105,0,396825,0.87645847,-0.7127225,0.88578224,0.0,0.003,284,-247,305,0
66004643,0,396825,0.8823978,-0.7097175,0.853513,0.0,0.003,286,-246,294,0
66024636,0,396825,0.8913067,-0.7367625,0.8007088,0.0,0.003,289,-255,276,0
66046590,0,396825,0.86161035,-0.73375756,0.894583,0.0,0.003,279,-254,308,0
66067620,0,396825,0.8527015,-0.70370746,0.9063173,0.0,0.003,276,-244,312,0
66088620,0,396825,0.8586408,-0.69469243,0.853513,0.0,0.003,278,-241,294,0
66108621,0,396825,0.840823,-0.69769746,0.87111443,0.0,0.003,272,-242,300,0
66131596,0,396825,0.8556711,-0.70370746,0.7948416,0.0,0.003,277,-244,274,0
66154585,0,396825,0.8527015,-0.7007025,0.8095095,0.0,0.003,276,-243,279,0
66177585,0,396825,0.86458004,-0.68868244,0.8652473,0.0,0.003,280,-239,298,0
66198591,0,396825,0.8527015,-0.7127225,0.8447123,0.0,0.003,276,-247,291,0
66221592,0,396825,0.8527015,-0.7097175,0.84177876,0.0,0.003,276,-246,290,0
66242592,0,396825,0.8675496,-0.69168746,0.8241773,0.0,0.003,281,-240,284,0
66264051,0,396825,0.84973186,-0.69168746,0.9063173,0.0,0.003,275,-240,312,0
66284633,0,396825,0.84379256,-0.69769746,0.85057944,0.0,0.003,273,-242,293,0
66304625,0,396825,0.84973186,-0.7067125,0.874048,0.0,0.003,275,-245,301,0
66326599,0,396825,0.84676224,-0.69769746,0.8447123,0.0,0.003,274,-242,291,0
66347585,0,396825,0.8348837,-0.7157275,0.9239187,0.0,0.003,270,-248,318,0
66369239,0,396825,0.8378533,-0.7067125,0.8623137,0.0,0.003,271,-245,297,0
66391585,0,396825,0.8378533,-0.7127225,0.9327194,0.0,0.003,271,-247,321,0
66414592,0,396825,0.84973186,-0.7307525,0.874048,0.0,0.003,275,-253,301,0
66435591,0,396825,0.82894444,-0.7157275,0.83297807,0.0,0.003,268,-248,287,0
66459593,0,396825,0.8051874,-0.7097175,0.82124376,0.0,0.003,260,-246,283,0
66483585,0,396825,0.78736967,-0.68868244,0.81537664,0.0,0.003,254,-239,281,0
66507584,0,396825,0.7636126,-0.6646424,0.77724016,0.0,0.003,246,-231,268,0
66531592,0,396825,0.74876446,-0.6285823,0.7567052,0.0,0.003,241,-219,261,0
66555636,0,396825,0.76064295,-0.65262234,0.74203736,0.0,0.003,245,-227,256,0
66579584,0,396825,0.78736967,-0.6766624,0.7332367,0.0,0.003,254,-235,253,0
66603591,0,396825,0.7398556,-0.6496174,0.6481631,0.0,0.003,238,-226,224,0
66627591,0,396825,0.7160985,-0.6255773,0.71856874,0.0,0.003,230,-218,248,0
66651585,0,396825,0.7250074,-0.6436073,0.7009674,0.0,0.003,233,-224,242,0
66675591,0,396825,0.76064295,-0.70370746,0.76257235,0.0,0.003,245,-244,263,0
66699585,0,396825,0.7844,-0.7277475,0.8241773,0.0,0.003,253,-252,284,0
66723642,0,396825,0.840823,-0.76681256,0.88284874,0.0,0.003,272,-265,304,0
66747593,0,396825,0.8348837,-0.74577755,0.89751655,0.0,0.003,270,-258,309,0
66771591,0,396825,0.8586408,-0.80287266,0.9033837,0.0,0.003,278,-277,311,0
66793671,0,396825,0.8705193,-0.8118877,0.92978585,0.0,0.003,282,-280,320,0
66815585,0,396825,0.8200356,-0.76380754,0.9327194,0.0,0.003,265,-264,321,0
66835584,0,396825,0.8675496,-0.80888265,0.9063173,0.0,0.003,281,-279,312,0
66858008,0,396825,0.84379256,-0.8058776,0.9620551,0.0,0.003,273,-278,331,0
66881692,0,396825,0.8556711,-0.76981753,0.853513,0.0,0.003,277,-266,294,0
66905997,0,396825,0.84676224,-0.7848426,0.9532544,0.0,0.003,274,-271,328,0
66929714,0,396825,0.84676224,-0.77282256,0.9268522,0.0,0.003,274,-267,319,0
66954028,0,396825,0.8556711,-0.7878476,0.9063173,0.0,0.003,277,-272,312,0
66977675,0,396825,0.8527015,-0.7878476,0.87698156,0.0,0.003,276,-272,302,0
66999585,0,396825,0.84379256,-0.76380754,0.89751655,0.0,0.003,273,-264,309,0
67022585,0,396825,0.8527015,-0.7758276,0.9180516,0.0,0.003,276,-268,316,0
67043585,0,396825,0.84676224,-0.77883255,0.9209851,0.0,0.003,274,-269,317,0
67065647,0,396825,0.8348837,-0.75779754,0.812443,0.0,0.003,270,-262,280,0
67086584,0,396825,0.8259748,-0.73375756,0.8623137,0.0,0.003,267,-254,297,0
67107590,0,396825,0.83191407,-0.73375756,0.812443,0.0,0.003,269,-254,280,0
67129660,0,396825,0.84973186,-0.73976755,0.87698156,0.0,0.003,275,-256,302,0
67150586,0,396825,0.8259748,-0.75178754,0.89751655,0.0,0.003,267,-260,309,0
67171585,0,396825,0.84379256,-0.76380754,0.84177876,0.0,0.003,273,-264,290,0
67193704,0,396825,0.8556711,-0.7487826,0.8241773,0.0,0.003,277,-259,284,0
67214584,0,396825,0.8348837,-0.73976755,0.87111443,0.0,0.003,270,-256,300,0
67235585,0,396825,0.82894444,-0.7547925,0.8593802,0.0,0.003,268,-261,296,0
67258794,0,396825,0.83191407,-0.74577755,0.915118,0.0,0.003,269,-258,315,0
67279584,0,396825,0.8348837,-0.76981753,0.8241773,0.0,0.003,270,-266,284,0
67300608,0,396825,0.8200356,-0.75178754,0.8681809,0.0,0.003,265,-260,299,0
67322769,0,396825,0.8527015,-0.76681256,0.88578224,0.0,0.003,276,-265,305,0
67343584,0,396825,0.87942815,-0.77282256,0.84177876,0.0,0.003,285,-267,290,0
67364632,0,396825,0.888337,-0.7878476,0.8652473,0.0,0.003,288,-272,298,0
67386807,0,396825,0.8378533,-0.7487826,0.88578224,0.0,0.003,271,-259,305,0
67407586,0,396825,0.86161035,-0.76681256,0.8241773,0.0,0.003,279,-265,284,0
67428649,0,396825,0.8348837,-0.7157275,0.9268522,0.0,0.003,270,-248,319,0
67450535,0,396825,0.808157,-0.70370746,0.935653,0.0,0.003,261,-244,322,0
67470591,0,396825,0.8259748,-0.73375756,0.8359116,0.0,0.003,267,-254,288,0
67494045,0,396825,0.8230052,-0.7127225,0.9180516,0.0,0.003,266,-247,316,0
67514590,0,396825,0.8022178,-0.7157275,0.83004445,0.0,0.003,259,-248,286,0
67534592,0,396825,0.84973186,-0.7427726,0.8241773,0.0,0.003,275,-257,284,0
67558046,0,396825,0.81112665,-0.7427726,0.9063173,0.0,0.003,262,-257,312,0
67578632,0,396825,0.808157,-0.7277475,0.8388452,0.0,0.003,261,-252,289,0
67598630,0,396825,0.840823,-0.76080257,0.8359116,0.0,0.003,272,-263,288,0
67618840,0,396825,0.8170659,-0.76380754,0.89751655,0.0,0.003,264,-264,309,0
67642468,0,396825,0.81112665,-0.80287266,0.812443,0.0,0.003,262,-277,280,0
67663586,0,396825,0.8259748,-0.7968626,0.85644656,0.0,0.003,267,-275,295,0
67684622,0,396825,0.808157,-0.75779754,0.8388452,0.0,0.003,261,-262,289,0
67706752,0,396825,0.82894444,-0.7878476,0.8652473,0.0,0.003,268,-272,298,0
67729584,0,396825,0.8022178,-0.76981753,0.853513,0.0,0.003,259,-266,294,0
67750793,0,396825,0.82894444,-0.77282256,0.81537664,0.0,0.003,268,-267,281,0
67774840,0,396825,0.8230052,-0.80287266,0.8388452,0.0,0.003,266,-277,289,0
67797585,0,396825,0.81409633,-0.7758276,0.7537716,0.0,0.003,263,-268,260,0
67819592,0,396825,0.7844,-0.77282256,0.8593802,0.0,0.003,253,-267,296,0
67840620,0,396825,0.7814304,-0.8359277,0.9239187,0.0,0.003,252,-288,318,0
67862802,0,396825,0.8348837,-0.8178977,0.77724016,0.0,0.003,270,-282,268,0
67883586,0,396825,0.78736967,-0.8269127,0.8447123,0.0,0.003,254,-285,291,0
67904618,0,396825,0.808157,-0.80287266,0.8447123,0.0,0.003,261,-277,291,0
67926823,0,396825,0.78736967,-0.7908526,0.9268522,0.0,0.003,254,-273,319,0
67950819,0,396825,0.7725215,-0.8058776,0.90925086,0.0,0.003,249,-278,313,0
67974853,0,396825,0.79330885,-0.8329227,0.7684395,0.0,0.003,256,-287,265,0
67997585,0,396825,0.79627854,-0.90203786,0.8271109,0.0,0.003,257,-310,285,0
68019608,0,396825,0.78736967,-0.8329227,0.89751655,0.0,0.003,254,-287,309,0
68043287,0,396825,0.81112665,-0.8689828,0.8271109,0.0,0.003,262,-299,285,0
68065584,0,396825,0.8051874,-0.82991767,0.9121844,0.0,0.003,260,-286,314,0
68088630,0,396825,0.79627854,-0.8209027,0.8593802,0.0,0.003,257,-283,296,0
68110823,0,396825,0.8200356,-0.84494275,0.87111443,0.0,0.003,265,-291,300,0
68131599,0,396825,0.8051874,-0.84494275,0.8681809,0.0,0.003,260,-291,299,0
