timestamp,gyro_rad[0],gyro_rad[1],gyro_rad[2],gyro_integral_dt,accelerometer_timestamp_relative,accelerometer_m_s2[0],accelerometer_m_s2[1],accelerometer_m_s2[2],accelerometer_integral_dt
49924526,-0.004613294,0.0021015767,0.00024857224,4002,0,0.036055617,-0.17566988,-9.724247,4002
49928526,-0.0017489978,0.00083205866,0.00074961357,4000,0,0.03159376,-0.17377952,-9.725288,4000
49932530,-0.0033686461,0.0016059979,0.002090446,4004,0,0.025166817,-0.1705005,-9.751945,4004
49936527,-0.0033553015,-5.617275e-06,0.0013788296,3997,0,0.035187636,-0.14814118,-9.75825,3997
49940525,-0.0026009837,0.00083446805,0.0008436855,3998,0,0.0408219,-0.15203522,-9.71445,3998
49944525,-0.0029177486,-0.00022924038,0.0007519523,4000,0,0.028823944,-0.1677525,-9.735213,4000
49948526,-0.003752472,0.0011324411,-0.00024772034,4001,0,0.03515519,-0.18153611,-9.729724,4001
49952526,-0.0034088192,0.0019578107,-0.001536332,4000,0,0.06327368,-0.16804333,-9.724378,4000
49956532,-0.0029986182,0.0020816713,-0.00068016537,4006,0,0.045253925,-0.18078554,-9.740235,4006
49960526,-0.0031119576,0.0007046416,-0.00033445776,3994,0,0.047543433,-0.16909468,-9.729744,3994
49964527,-0.0042934935,0.0012493411,0.00027179893,4001,0,0.045672327,-0.15966056,-9.73648,4001
49968525,-0.0032278316,0.0017797018,0.00017341701,3998,0,0.06611913,-0.18565686,-9.743928,3998
49972525,-0.0034403885,0.002314126,0.00026504105,4000,0,0.050603595,-0.1658391,-9.734422,4000
49976525,-0.0042881016,7.485657e-05,-2.3415509e-05,4000,0,0.04724128,-0.1587998,-9.740171,4000
49980525,-0.0028128752,0.00061901717,0.00073570636,4000,0,0.025790282,-0.1643261,-9.732118,4000
49984527,-0.0032352654,0.0012566076,0.0006095947,4002,0,0.037340865,-0.18415059,-9.740762,4002
49988526,-0.0037569094,0.0016712693,6.0749677e-05,3999,0,0.04792857,-0.18333568,-9.7243595,3999
49992526,-0.0022836255,0.0014749368,0.000940914,4000,0,0.032166984,-0.14859828,-9.756437,4000
49996527,-0.0036503011,0.0015656116,6.46572e-05,4001,0,0.04101306,-0.16332085,-9.752277,4001
50000526,-0.0037864891,0.0011715177,0.001665818,3999,0,0.04956387,-0.18062165,-9.732272,3999
50004526,-0.0041045384,0.00021300718,0.0015744534,4000,0,0.046776608,-0.15930265,-9.741094,4000
50008527,-0.0025087784,0.00021205987,0.0016026838,4001,0,0.03772573,-0.16583963,-9.734642,4001
50012527,-0.002192921,0.00042918065,0.0018169661,4000,0,0.045746885,-0.16779311,-9.712638,4000
50016561,-0.003368128,0.0020253619,0.001866988,4034,0,0.05156843,-0.1834153,-9.727104,4034
50020526,-0.0043085576,0.0020180524,0.0011039301,3965,0,0.045314334,-0.1674705,-9.751241,3965
50024526,-0.0037593408,0.0010359761,0.00017937884,4000,0,0.03750586,-0.16326801,-9.749551,4000
50028526,-0.003330251,0.0017747474,-3.951824e-05,4000,0,0.037633844,-0.17396879,-9.757677,4000
50032527,-0.0052311183,0.0012306661,-0.0007045881,4001,0,0.03854823,-0.16087785,-9.725468,4001
50036527,-0.0046129213,0.0013565299,0.00026320413,4000,0,0.020904627,-0.15436967,-9.73518,4000
50040527,-0.0037625912,0.0034863008,0.00034260712,4000,0,0.0256814,-0.17857096,-9.725783,4000
50044526,-0.0038674718,0.0027404984,0.00024866057,3999,0,0.010320785,-0.16525424,-9.752785,3999
50048526,-0.0025719744,0.0019737217,-0.0007766704,4000,0,0.036282893,-0.17259242,-9.737321,4000
50052527,-0.004054919,0.0016482081,-0.0011161284,4001,0,0.033518475,-0.16373122,-9.74822,4001
50056526,-0.0029934242,0.0026069572,-0.0010097253,3999,0,0.02491701,-0.15778993,-9.738302,3999
50060526,-0.005232759,0.0025070824,-0.0007297693,4000,0,0.036119957,-0.19113702,-9.755509,4000
50064527,-0.004378921,0.0008010108,-0.00089183694,4001,0,0.050038572,-0.1657814,-9.731166,4001
50068527,-0.0048100045,0.0011261828,-0.00058714417,4000,0,0.07196889,-0.16498312,-9.738664,4000
50072527,-0.003442364,0.0019941232,0.00027123478,4000,0,0.042962674,-0.16323918,-9.723471,4000
50076526,-0.0031276492,0.0010421381,0.000510173,3999,0,0.01961619,-0.15117377,-9.719006,3999
50080526,-0.0027915007,0.001237166,-0.00033987398,4000,0,0.020077765,-0.16937791,-9.744638,4000
50084527,-0.0025888474,0.001247981,0.00019666103,4001,0,0.028087473,-0.16998038,-9.750054,4001
50088526,-0.0039623757,0.00091814395,-0.00035525826,3999,0,0.028008392,-0.18087056,-9.744721,3999
50092526,-0.0027086488,9.147962e-05,0.0008569179,4000,0,0.038914304,-0.15882967,-9.71853,4000
50096527,-0.004287374,0.00060435646,-3.4161952e-05,4001,0,0.044078454,-0.1710212,-9.730693,4001
50100527,-0.0050191428,0.0012293172,-0.00080651086,4000,0,0.04814071,-0.16778725,-9.7358055,4000
50104527,-0.004403674,0.0018927213,0.00046932654,4000,0,0.05308228,-0.1840297,-9.7349205,4000
50108560,-0.004820323,0.0009095145,-0.00049911527,4033,0,0.045452893,-0.14542015,-9.755586,4033
50112526,1.0892531e-05,-0.0003792566,-0.006000982,3966,0,-0.009848111,-0.2942871,-9.732485,3966
50116527,-0.005299227,0.0017287625,0.0026902473,4001,0,0.0068166796,-0.0923875,-9.688625,4001
50120526,-0.0059411274,0.00048188365,0.014841957,3999,0,0.066057764,-0.039299555,-9.713559,3999
50124527,-0.009249909,0.004869907,0.021293769,4001,0,0.019752046,-0.19067802,-9.773917,4001
50128527,-0.00013762474,0.0010640991,0.017279608,4000,0,0.07683712,0.0457964,-9.790697,4000
50132526,-0.0039471965,0.0020825227,0.004417208,3999,0,-0.03968652,-0.29851213,-9.67347,3999
50136527,-0.002575674,0.00014068454,-0.012447311,4001,0,0.061795585,-0.071766004,-9.740352,4001
50140527,-0.00073301705,-0.0024581472,-0.019920764,4000,0,0.09245341,-0.069499545,-9.726333,4000
50144526,-0.0019012705,-0.00015697978,-0.037548576,3999,0,0.17243421,-0.2499261,-9.826971,3999
50148526,-0.0024152144,0.0003011055,-0.067702875,4000,0,-0.1922515,0.047337167,-9.670421,4000
50152526,-0.0051959367,0.00096158497,-0.00870324,4000,0,0.5235284,-1.0687215,-9.967112,4000
50156526,-0.027208593,-0.0021257184,0.090176135,4000,0,-0.1408673,-0.65573955,-9.444036,4000
50160526,-0.0115099875,0.02212328,0.17952563,4000,0,0.027306113,0.3824585,-9.688639,4000
50164526,-0.018936088,0.012028756,0.12313537,4000,0,-0.09110162,1.0032157,-9.4673395,4000
50168527,0.0017035737,0.0097352015,-0.04830952,4001,0,-0.73921376,0.3874789,-9.646481,4001
50172526,0.022802051,-0.011893199,-0.20673992,3999,0,0.23119357,-0.2069186,-9.787133,3999
50176526,0.0020992788,-0.025832279,-0.23265997,4000,0,-0.13545257,-1.1479039,-9.574518,4000
50180526,0.009180792,-0.0120809395,-0.08369438,4000,0,-0.47981915,-1.088785,-9.501719,4000
50184526,-0.023468861,0.0030590387,0.0947211,4000,0,0.4421999,-0.20455465,-9.822279,4000
50188527,-0.034392726,0.030379064,0.19745797,4001,0,-0.15279166,-0.39574525,-9.824515,4001
50192526,-0.023199216,0.030614167,0.16703096,3999,0,-0.05287771,0.5208351,-10.049717,3999
50196526,-0.0077618537,0.0066516045,0.019859023,4000,0,-0.017602691,1.1571894,-10.041231,4000
50200527,0.024405867,-0.018267248,-0.13239706,4001,0,0.3115469,0.12055421,-9.890693,4001
50204526,0.03677208,-0.024557954,-0.17975764,3999,0,0.20083368,-0.28529713,-9.701367,3999
50208527,0.017655956,-0.0054082465,-0.11758603,4001,0,0.19982706,-1.0536581,-9.584925,4001
50212526,-0.010408201,0.0031328076,0.008929704,3999,0,-0.08826623,-1.3104264,-9.837466,3999
50216526,-0.026373446,0.011436245,0.1134496,4000,0,-0.027071852,-0.67002636,-9.874059,4000
50220526,-0.028272703,0.0056229434,0.14166279,4000,0,0.011896941,0.115189634,-9.904949,4000
50224527,-0.014145304,0.0038045628,0.078726366,4001,0,-0.35502693,0.9052139,-9.661341,4001
50228527,-0.0012262821,0.0031373613,-0.022055818,4000,0,0.5086159,0.6373067,-9.656022,4000
50232527,0.010942045,-0.0016247033,-0.093823634,4000,0,-0.05753225,0.23654577,-9.694796,4000
50236526,0.017914943,-0.009896835,-0.10290097,3999,0,-0.109012336,-0.30987152,-9.732408,3999
50240526,0.010826712,-0.004176827,-0.046517864,4000,0,0.17003392,-1.0168281,-9.882056,4000
50244527,-4.4014087e-05,-0.0023173278,0.023934938,4001,0,-0.09350867,-0.8351155,-9.849127,4001
50248526,-0.022747511,0.011284814,0.095758125,3999,0,0.48277223,-0.14225534,-9.862564,3999
50252526,-0.0335334,0.009456381,0.11518579,4000,0,0.019052166,-0.033880234,-9.693026,4000
50256526,-0.017052513,0.0037927632,0.056701727,4000,0,0.018291052,0.6917597,-9.7786045,4000
50260531,0.012387069,-0.0048411665,-0.07363885,4005,0,-0.40119126,0.17080097,-9.6419,4005
50264529,0.026708845,-0.0099470075,-0.14712292,3998,0,0.025350107,-0.29647514,-9.636985,3998
50268526,0.0021871137,-0.005710467,-0.08038933,3997,0,0.26762915,-0.19113572,-9.65753,3997
50272526,-0.02093631,-0.0046148603,0.025630452,4000,0,-0.14989449,-0.5351469,-9.792277,4000
50276526,-0.002638513,0.008372926,0.07849773,4000,0,0.20973027,-0.97737426,-9.811501,4000
50280527,-0.0069755097,0.018058587,0.14146708,4001,0,0.3869363,0.15261874,-9.793713,4001
50284526,-0.032408297,0.0075556086,0.1113396,3999,0,-0.3561457,1.3980283,-9.996664,3999
50288527,-0.0046436638,-0.0103956675,-0.08673489,4001,0,-0.09543773,-0.5883544,-9.51722,4001
50292526,0.030035796,-0.016332971,-0.18334718,3999,0,0.5852973,-0.30117965,-9.72602,3999
50296527,0.011028389,-0.006740785,-0.1569591,4001,0,-0.37702003,-0.14808264,-9.523773,4001
50300526,0.0008415815,-0.015239777,-0.08250737,3999,0,-0.42534372,-1.1537249,-9.675639,3999
50304526,-0.022988029,-0.0054518036,0.120757625,4000,0,0.7614636,-0.87557805,-9.188816,4000
50308527,-0.05391783,0.025168674,0.28706607,4001,0,0.606232,1.1443219,-9.720629,4001
50312528,-0.005297888,0.024260383,0.18970525,4001,0,-0.8984128,-0.19903804,-9.85282,4001
50316528,0.017484767,-0.0052210265,0.04346085,4000,0,0.72722083,0.9474122,-9.957241,4000
50320527,0.013183203,-0.0067062397,-0.1815238,3999,0,0.27142042,0.7294624,-9.847059,3999
50324526,0.016905949,-0.029830009,-0.2981881,3999,0,-1.1782212,-2.1254263,-9.662275,3999
50328527,0.019431427,-0.037518077,-0.2204915,4001,0,0.63031787,-0.9789429,-9.523498,4001
50332526,-0.025071463,0.011585888,-0.0097397445,3999,0,0.4709175,-0.6465356,-9.547167,3999
50336526,-0.07272447,0.028248807,0.23256281,4000,0,-1.5425674,-1.6110576,-9.266278,4000
50340531,-0.0023568608,0.024647502,0.31343794,4005,0,0.90458316,0.9464535,-9.550702,4005
50344526,-0.017230913,0.036309615,0.20134574,3995,0,0.175287,1.0268612,-10.011835,3995
50348527,0.008920639,0.013942453,-0.024335943,4001,0,-0.9410912,0.41428238,-9.900287,4001
50352558,0.024881044,-0.037084874,-0.27488336,4031,0,1.6445154,1.2467829,-10.04055,4031
50356526,-0.012238314,-0.025028478,-0.29772538,3968,0,-0.3552113,-1.4467158,-9.829464,3968
50360527,0.025982726,-0.030843355,-0.20081577,4001,0,0.08837931,-2.0030653,-9.59284,4001
50364527,-0.004142479,0.00029337968,0.07394508,4000,0,0.8662587,0.36475313,-9.428974,4000
50368527,-0.07191501,0.03678301,0.3283456,4000,0,-1.3927358,-0.8739034,-9.628016,4000
50372527,-0.0098619275,0.014876288,0.30429405,4000,0,0.08012139,0.37109774,-9.695209,4000
50377326,-0.005540729,0.019393794,0.15147646,4799,0,0.024751127,1.4803367,-10.064495,4799
50381326,0.021208275,0.004374918,-0.14442486,4000,0,-0.85184586,0.38911232,-9.9108,4000
50385327,0.055133753,-0.029497072,-0.33209234,4001,0,0.8339663,-0.20346053,-9.531324,4001
50389326,-0.005936868,-0.025033625,-0.28775412,3999,0,0.40049642,-1.6803249,-9.6023035,3999
50393326,-0.017198563,-0.009000476,-0.121316664,4000,0,-0.5111669,-1.3195255,-9.697991,4000
50397326,-0.023720609,-0.0033165494,0.1679534,4000,0,0.6864576,-1.4710305,-9.7762165,4000
50401327,-0.059610557,0.02495822,0.35988095,4001,0,0.2963714,1.0271739,-10.129694,4001
50405327,-0.0008427977,0.03459225,0.30043507,4000,0,-0.62980604,0.7726829,-9.773111,4000
50409327,0.012716991,-0.004083003,0.0887808,4000,0,0.117781185,0.6558689,-9.810113,4000
50413326,0.022242049,-0.01687718,-0.20544668,3999,0,0.47459725,1.795818,-9.283138,3999
50417327,0.010449009,-0.02266702,-0.3228218,4001,0,0.0047858143,-1.0388179,-9.4281225,4001
50421326,0.01739318,-0.02719769,-0.27349812,3999,0,0.072985664,-1.7710063,-9.762825,3999
50425326,0.02160653,-0.0047792136,-0.06541976,4000,0,0.15482402,-0.8776276,-9.777979,4000
50429326,-0.062056933,0.01704715,0.21644822,4000,0,-0.37126976,-1.7694696,-10.070081,4000
50433327,-0.032293346,0.006234197,0.30243796,4001,0,-0.25256065,0.18095595,-9.999691,4001
50437326,-0.0020916746,0.031665668,0.23553135,3999,0,0.152102,1.1793219,-9.792469,3999
50441327,-0.012158127,0.019689742,0.021812093,4001,0,-0.045890287,1.0790675,-9.797108,4001
50445326,0.042443726,-0.013197785,-0.2862705,3999,0,0.0679352,0.2267614,-9.297864,3999
50449326,0.0043403255,-0.04085704,-0.34930608,4000,0,0.63859326,-0.8341394,-9.474007,4000
50453326,-0.014401865,-0.036247857,-0.21010783,4000,0,-0.29974067,-1.311749,-9.692193,4000
50457326,0.003507187,-0.0107329395,0.03938532,4000,0,-0.15109833,-1.7212323,-9.637711,4000
50461327,-0.0416766,0.022589343,0.32815316,4001,0,0.61901575,0.55823547,-9.825302,4001
50465327,-0.017495433,0.05866935,0.36902204,4000,0,-0.48635843,0.13906991,-10.101402,4000
50469326,-0.009512631,0.025432013,0.2100215,3999,0,-0.46397433,0.5800091,-9.896656,3999
50473327,0.024745835,-0.0037282775,-0.09780753,4001,0,0.9277167,1.9958568,-9.735055,4001
50477325,0.005003735,-0.031316992,-0.34551302,3998,0,-0.6977107,-1.3197405,-9.395026,3998
50481326,0.024674507,-0.044116266,-0.35663322,4001,0,0.6208675,-0.39918175,-9.394978,4001
50485325,0.0033515955,-0.02369207,-0.18956713,3999,0,0.16578545,-1.6427796,-9.53378,3999
50489325,-0.05397147,0.022443065,0.12656088,4000,0,-0.35657224,-1.4518778,-9.810034,4000
50493327,-0.010774872,0.026221449,0.30195966,4002,0,-0.22260292,-0.46777996,-9.849894,4002
50497328,-0.030320063,0.047174245,0.35859302,4001,0,-0.008697871,1.1379349,-10.23211,4001
50501327,0.00089555536,0.030683717,0.17064585,3999,0,-0.07993731,1.8419778,-9.904732,3999
50505327,0.032869406,-0.015508989,-0.14106393,4000,0,0.14772168,-0.4150364,-9.884086,4000
50509328,0.02699673,-0.03923106,-0.32015377,4001,0,0.89522433,0.624373,-9.463234,4001
50513328,0.0044877087,-0.03802241,-0.32472497,4000,0,0.36426914,-1.202634,-9.384844,4000
50517327,-0.03139921,-0.016227527,-0.14788762,3999,0,-0.77591944,-1.9066521,-9.701516,3999
50521327,-0.0025531626,0.018937113,0.13768665,4000,0,1.0258042,-0.67748505,-9.515323,4000
50525327,-0.06474738,0.023959098,0.37320203,4000,0,-0.7609344,0.5724352,-10.362145,4000
50529327,0.008935443,0.051167443,0.32996973,4000,0,-0.57547504,0.1240714,-9.699327,4000
50533327,0.028515788,-0.006819472,0.12734443,4000,0,0.577949,1.196346,-10.093492,4000
50537327,0.020626241,0.007668348,-0.22250238,4000,0,-0.7990517,1.6847771,-9.708747,4000
50541327,0.023323206,-0.037618853,-0.40456855,4000,0,0.3415301,-1.6781317,-9.390756,4000
50545326,-0.023251904,-0.032222632,-0.34285066,3999,0,0.50796944,-0.5802688,-9.795788,3999
50549327,-0.009389614,0.01124384,-0.09420444,4001,0,-0.07725735,-2.3198001,-9.505044,4001
50553328,-0.040501855,0.004359125,0.24643984,4001,0,0.45350003,-0.47547612,-9.923833,4001
50557327,0.0019642054,0.0533757,0.39737454,3999,0,-0.20134056,1.0381379,-9.7894125,3999
50561336,-0.03754981,0.018565757,0.3749933,4009,0,0.744379,-0.46298403,-9.698034,4009
50565326,0.031085536,0.01227091,0.02415013,3990,0,-0.5175515,1.7471702,-10.052021,3990
50569326,0.03267914,-0.029108195,-0.2577453,4000,0,-0.23496643,0.3856884,-9.833626,4000
50573327,-0.013991525,-0.03378906,-0.4141601,4001,0,0.28954962,-0.46350053,-9.718139,4001
50577326,0.022658115,-0.02408222,-0.29834136,3999,0,0.2062142,-1.324999,-9.440766,3999
50581326,-0.0314012,0.0060503855,0.016235247,4000,0,0.19428039,-1.8435522,-9.408605,4000
50585326,-0.015748132,0.012472639,0.30083093,4000,0,0.036806434,-0.86801934,-9.643615,4000
50589328,-0.015427014,0.050584517,0.41701165,4002,0,-0.3871773,1.1764686,-9.777338,4002
50593328,-0.020767098,0.028800473,0.26168418,4000,0,0.8052272,0.639499,-9.956876,4000
50597327,0.009998345,-0.0074088383,-0.053792622,3999,0,-0.82411087,0.5151572,-10.107678,3999
50601326,0.049529206,-0.027549038,-0.3532868,3999,0,0.66118246,1.0599383,-9.786709,3999
50605327,-0.021620028,-0.0572932,-0.4305553,4001,0,-0.5407393,-1.091166,-9.672584,4001
50609328,-0.010999447,-0.011697871,-0.24423635,4001,0,0.18815807,-1.253457,-9.4471035,4001
50613327,-0.028279359,0.012222739,0.08425687,3999,0,0.44862506,-1.9686627,-9.335547,3999
50617327,-0.021442149,0.027237348,0.3621389,4000,0,-0.947604,0.58486325,-9.668975,4000
50621327,0.0024647794,0.0555138,0.40695244,4000,0,0.48421264,0.18344522,-9.534583,4000
50625327,-0.0115285,0.011743525,0.23895061,4000,0,0.77409905,0.48710546,-10.386459,4000
50629327,0.033471428,-0.008560689,-0.120892935,4000,0,-0.78463846,1.6405623,-9.8612385,4000
50633327,0.0018564063,-0.052191306,-0.33047158,4000,0,0.53392303,-0.5114997,-10.232737,4000
50637327,0.012356881,-0.026597098,-0.42181894,4000,0,-0.1015602,-0.81605166,-9.538282,4000
50641327,-0.018764503,-0.009042599,-0.16171415,4000,0,0.04248842,-1.9073701,-9.566254,4000
50645327,-0.038624555,0.016089393,0.1543679,4000,0,0.35930166,-0.9942737,-9.368248,4000
50649327,-0.02001403,0.02933608,0.37127054,4000,0,-0.86055195,-0.096124604,-9.395119,4000
50653326,-0.015278007,0.03347052,0.38071233,3999,0,0.86101097,1.695938,-9.750924,3999
50657328,0.0059323884,0.0042507583,0.11660414,4002,0,-1.0846015,-0.51630306,-9.991288,4002
50661328,0.049673967,-0.017571393,-0.18660037,4000,0,0.44505736,2.2067976,-10.103211,4000
50665328,-6.524212e-05,-0.037916534,-0.4240676,4000,0,0.19739923,-1.2391233,-9.730749,4000
50669326,-0.015538515,-0.018351821,-0.35141632,3998,0,-0.66033643,-0.9978874,-9.863645,3998
50673326,-0.0041512563,0.018764187,-0.11234501,4000,0,1.0043813,-0.8231271,-9.399859,4000
50677327,-0.05438608,-0.0014767136,0.23726302,4001,0,-0.60620004,-1.4966274,-9.653442,4001
50681326,0.015098474,0.055545438,0.38884416,3999,0,0.19634867,0.95981467,-9.440243,3999
50685326,-0.01836418,0.00064455555,0.37234598,4000,0,0.25772437,0.79021746,-9.752209,4000
50689327,0.014839315,0.020448584,0.07634744,4001,0,-0.6771168,0.7135331,-9.985218,4001
50693326,0.030308515,-0.020699877,-0.23248637,3999,0,0.5269438,0.54066277,-9.906211,3999
50697327,-0.026263263,-0.039588377,-0.40516284,4001,0,0.055141907,-0.7579443,-9.935407,4001
50701326,0.026890429,-0.0049091335,-0.30271855,3999,0,0.5059519,-1.6389892,-9.611361,3999
50705326,-0.03794891,-0.01614607,0.0076331035,4000,0,-0.32669005,-1.1733618,-9.410704,4000
50709333,-0.00836546,0.027205894,0.24098599,4007,0,-0.30768567,-0.3474096,-9.513871,4007
50713327,-0.011754686,0.018604191,0.37838334,3994,0,0.43650565,0.6819949,-9.451413,3994
50717327,-0.019453228,0.032300193,0.22433464,4000,0,-0.27152425,0.64647156,-10.110795,4000
50721327,0.024436194,0.00032777392,-0.03421106,4000,0,-0.351038,1.0285183,-9.974883,4000
50725327,0.01742415,-0.016228873,-0.32034454,4000,0,0.6860785,-0.29789546,-9.940013,4000
50729327,0.006048916,-0.04321377,-0.3912671,4000,0,-0.09890362,-1.112865,-9.736469,4000
50733327,-0.006551016,-0.016568767,-0.19081292,4000,0,-0.3717546,-0.937611,-9.673473,4000
50737326,-0.032731928,-0.005863682,0.09462839,3999,0,0.76013285,-1.6439226,-9.463866,3999
50741327,-0.035396364,0.037352894,0.36541152,4001,0,-0.31686875,0.818129,-9.386991,4001
50745327,-0.000844064,0.056552008,0.3708529,4000,0,0.22604112,0.07920824,-9.409985,4000
50749327,0.0027401731,0.009480347,0.18027349,4000,0,-0.520938,0.38930792,-10.216119,4000
50753326,0.040495507,-0.0016065981,-0.1558543,3999,0,0.14782679,2.1820588,-9.899971,3999
50757326,-0.013606819,-0.058485772,-0.37403727,4000,0,0.13672055,-1.4501746,-9.889943,4000
50761326,0.010985057,-0.01754364,-0.34723085,4000,0,-0.0075158905,0.24910891,-9.867718,4000
50765327,-0.016447814,-0.00028350946,-0.091505766,4001,0,1.048481,-2.4301398,-9.539275,4001
50769326,-0.046043873,0.016300742,0.19119497,3999,0,-1.1141655,-0.6732102,-9.670036,3999
50773327,0.026841076,0.036921583,0.34759295,4001,0,0.3694415,0.23777717,-9.311874,4001
50777328,-0.04688522,0.011416732,0.31649873,4001,0,0.8462283,0.33424917,-9.910078,4001
50781327,0.038078588,0.032059617,0.04031829,3999,0,-0.4883742,0.98921907,-9.698688,3999
50785326,0.011361582,-0.03372653,-0.23889923,3999,0,-0.04398555,0.77130234,-10.1770735,3999
50789327,0.0025911294,-0.024645686,-0.38860562,4001,0,0.17180516,-0.7172178,-9.799206,4001
50793327,0.014448873,-0.028024346,-0.25666106,4000,0,-0.4318075,-1.7702637,-9.50778,4000
50797327,-0.034075398,-0.00967406,0.027996281,4000,0,0.96919936,-0.56484914,-9.745649,4000
50801327,-0.02643254,0.024496675,0.27980176,4000,0,-0.405267,-0.73598075,-9.37895,4000
50805327,-0.02852334,0.04180149,0.38769522,4000,0,0.38305825,1.2009988,-9.69855,4000
50809327,0.010927371,0.041503664,0.21367282,4000,0,0.041767754,-0.323338,-9.9469795,4000
50813326,0.021556117,-0.025272535,-0.063290775,3999,0,-0.81330246,1.587676,-9.979152,3999
50817327,0.026973762,-0.032172516,-0.3245838,4001,0,0.9688343,0.5359689,-10.050743,4001
50821327,-0.014235688,-0.059501644,-0.37619638,4000,0,-0.6197514,-2.233759,-9.559277,4000
50825328,-0.0015193607,-0.0005765113,-0.16304667,4001,0,1.0875853,-0.4309733,-9.580076,4001
50829327,-0.041635323,0.012328852,0.11008905,3999,0,-0.79706484,-1.9051,-9.358051,3999
50833327,-0.023782494,0.038473524,0.33866462,4000,0,-0.16747566,0.65768725,-9.69616,4000
50837327,0.007828605,0.03082753,0.3512197,4000,0,0.7164023,0.72750336,-9.810096,4000
50842128,-0.0024449818,0.0007917163,0.10862673,4801,0,-0.72439796,0.44876707,-10.033703,4801
50846127,0.053796094,-0.01497157,-0.23178513,3999,0,1.2913632,1.5094303,-10.096718,3999
50850127,-0.038631663,-0.03582523,-0.37976214,4000,0,-0.5667823,-1.4710202,-9.659834,4000
50854126,0.012788298,-0.009167108,-0.30745003,3999,0,0.5992477,0.25224623,-9.6330595,3999
50858127,-0.020412423,-0.016654179,-0.043555476,4001,0,0.0822842,-1.9718986,-9.594329,4001
50862133,-0.025848858,0.01632029,0.23757485,4006,0,-0.074575976,-1.1338881,-9.362895,4006
50866127,-0.00022843099,0.027367037,0.41168398,3994,0,0.07240702,0.7692222,-9.622258,3994
50870126,-0.02304304,0.039839264,0.33327153,3999,0,0.22553909,0.0026198851,-9.958975,3999
50874126,0.019089997,0.00822726,0.06024672,4000,0,-0.22481428,1.1260257,-9.895624,4000
50878126,0.026612312,-0.015082615,-0.25805447,4000,0,-0.17264704,1.0224571,-10.290724,4000
50882126,0.002749797,-0.03882303,-0.44345444,4000,0,0.0012084999,-1.5486714,-9.453419,4000
50886126,-0.0018776184,-0.03341458,-0.30641055,4000,0,-0.30655584,0.54918295,-9.991666,4000
50890127,-0.03032513,0.003896237,-0.04804834,4001,0,0.74201995,-3.19373,-9.104723,4001
50894126,-0.03780565,0.0072128642,0.2726673,3999,0,-0.55407494,-0.21915242,-9.546091,3999
50898126,0.016416945,0.046455126,0.40341383,4000,0,0.46821496,0.5896069,-9.553701,4000
50902126,-0.03549203,0.02272088,0.32838094,4000,0,-0.37110078,0.6730866,-9.859261,4000
50906126,0.033140033,0.021671893,0.047580294,4000,0,0.22961782,2.202856,-10.256512,4000
50910128,0.0040547997,-0.022947345,-0.29350775,4002,0,0.2372698,-0.9472015,-9.805482,4002
50914127,0.0051559266,-0.043156017,-0.38287303,3999,0,0.668187,-0.031285286,-9.873933,3999
50918126,0.026333155,-0.017363766,-0.31842616,3999,0,-0.2593001,-1.9082127,-9.381837,3999
50922125,-0.05001399,-0.021264087,-0.019155849,3999,0,-0.44831952,-1.6513124,-9.4472,3999
50926126,-0.007363521,0.03625829,0.2840338,4001,0,0.90631646,0.73029745,-9.58631,4001
50930126,-0.04154107,0.03361669,0.40334707,4000,0,-1.1399984,-0.6336148,-9.602644,4000
50934126,0.013856486,0.032414023,0.29793862,4000,0,1.3275915,1.3966284,-9.898785,4000
50938126,0.015284955,0.014093725,0.030465554,4000,0,-0.5783967,0.6107526,-10.0219345,4000
50942127,0.024137031,-0.018870503,-0.29336563,4001,0,-0.61935884,0.14311671,-9.814384,4001
50946127,0.037283186,-0.03981285,-0.42280483,4000,0,1.1635234,-0.23155342,-9.696431,4000
50950128,-0.04310082,-0.017946146,-0.3046438,4001,0,-1.8934045,-1.67285,-9.57971,4001
50954126,-0.012482383,-0.020703094,-0.01166374,3998,0,1.2572703,-1.6007332,-9.594593,3998
50958127,-0.0382324,0.013161025,0.3150039,4001,0,0.11252769,0.445318,-9.830112,4001
50962127,-0.026598709,0.054960817,0.38901693,4000,0,-0.47886664,-0.5863481,-9.24461,4000
50966127,0.022880519,0.023028288,0.31277472,4000,0,1.3236984,1.7006065,-10.168846,4000
50970126,-0.0018631642,0.02345135,-0.02862123,3999,0,-1.0572433,0.67167103,-10.032839,3999
50974127,0.030656885,-0.042180024,-0.29976627,4001,0,0.70376307,-0.13391,-9.743157,4001
50978126,-0.0019819895,-0.031034308,-0.39233097,3999,0,0.21731515,-0.4453443,-9.845833,3999
50982126,-0.0024621992,-0.006782224,-0.26909927,4000,0,-0.14864235,-2.115866,-9.239995,4000
50986126,-0.013060259,-0.035824608,0.055059444,4000,0,0.34859538,-1.1267357,-9.66268,4000
50990127,-0.02861566,0.04299388,0.30628377,4001,0,0.09010302,0.2693988,-9.483364,4001
50994127,-0.038121566,0.013009782,0.3896969,4000,0,-0.7316276,-0.98442507,-9.524997,4000
50998127,0.018462708,0.033556763,0.23962365,4000,0,0.9955469,2.8939831,-10.275458,4000
51002127,0.015705507,0.024385318,-0.08679133,4000,0,-0.713909,-0.77136034,-9.940445,4000
51006127,0.02192229,-0.0341502,-0.31671256,4000,0,0.23184004,0.21646178,-10.000056,4000
51010127,0.021442488,-0.027209263,-0.39404345,4000,0,0.7285865,-0.5805051,-9.666555,4000
51014126,-0.035628747,-0.04327585,-0.2011083,3999,0,-0.8116928,-2.1181102,-9.574187,3999
51018127,-0.01459516,-0.014874323,0.086168624,4001,0,1.100466,-0.24143416,-9.23108,4001
51022128,-0.042817228,0.028161565,0.35531962,4001,0,-0.3410369,-0.24160032,-9.537779,4001
51026127,-0.01066849,0.04218009,0.38491616,3999,0,-0.22790556,0.21192823,-9.601443,3999
51030126,0.039871994,0.03108565,0.2225168,3999,0,0.21305293,2.023479,-10.480331,3999
51034128,0.021224491,0.010273625,-0.12672858,4002,0,-0.40883029,0.07723017,-10.199223,4002
51038127,0.014070995,-0.039266996,-0.3699962,3999,0,0.4634546,-0.040650096,-9.920221,3999
51042127,0.0008377549,-0.03459451,-0.39163858,4000,0,-0.3821989,-1.1682613,-9.567998,4000
51046127,-0.018840319,-0.040283438,-0.2113046,4000,0,0.36044052,-1.7753803,-9.316672,4000
51050127,-0.043991964,0.0055368664,0.16348289,4000,0,0.54359937,0.1571351,-9.728362,4000
51054128,-0.03142779,0.03570737,0.34422165,4001,0,-0.48730806,-1.8412877,-8.995209,4001
51058126,0.003338669,0.038806293,0.4035735,3998,0,0.61605555,1.3359556,-9.796751,3998
51062127,0.02803375,0.075357854,0.15874957,4001,0,-0.8442828,1.4736471,-9.87924,4001
51066127,-0.014287727,-0.036576852,-0.12825969,4000,0,-0.07822512,0.069456846,-10.206183,4000
51070126,0.02748061,-0.02019839,-0.34699777,3999,0,1.3418416,1.011317,-10.165278,3999
51074128,0.0003094661,-0.06705475,-0.39759138,4002,0,-0.871729,-2.5031497,-9.468466,4002
51078126,-0.014007962,-0.029610751,-0.21966515,3998,0,0.41371936,-0.031934623,-9.544152,3998
51082127,-0.020890236,0.021614611,0.12758723,4001,0,0.68608195,-0.9093999,-9.506375,4001
51086127,-0.07364167,0.0040455363,0.37676337,4000,0,-0.9501183,-1.3057184,-9.525112,4000
51090127,0.06852944,0.042165257,0.41256678,4000,0,0.7902097,1.3182938,-9.763534,4000
51094126,0.0047573894,0.029941153,0.23384148,3999,0,-1.0887234,0.68679184,-9.975189,3999
51098127,0.01367615,0.008874582,-0.11122213,4001,0,-0.22407597,0.9716484,-10.145451,4001
51102127,-0.0028071138,-0.018689265,-0.3481355,4000,0,1.1794058,-0.3987614,-9.925805,4000
51106127,-0.031096922,-0.0327512,-0.426218,4000,0,-0.50414896,-1.6154385,-9.6892,4000
51110128,0.017755847,-0.029240988,-0.21652703,4001,0,1.0184784,-0.6818981,-9.376535,4001
51114126,-0.045727935,0.0054726144,0.11834223,3998,0,0.26343402,-1.2422634,-9.458832,3998
51118127,-0.021282448,0.004510249,0.36448333,4001,0,-0.4471317,-0.9670017,-9.396886,4001
51122127,0.010969106,0.04322892,0.41181532,4000,0,-0.101950526,1.5789862,-9.732712,4000
51126127,-0.0025149102,0.03572747,0.18839838,4000,0,-0.2575412,0.63631123,-10.172234,4000
51130127,0.02376443,-0.00016758834,-0.13726595,4000,0,-0.939604,1.2462687,-10.0244,4000
51134127,0.018452426,-0.016971257,-0.3887859,4000,0,0.90458965,0.1959935,-9.846922,4000
51138126,-0.032503918,-0.052565075,-0.39616963,3999,0,-0.8305582,-1.1207712,-9.677249,3999
51142127,0.012760681,-0.0016088006,-0.18166074,4001,0,1.0049297,-0.7824352,-9.384747,4001
51146127,-0.0449282,-0.006254398,0.14903909,4000,0,0.3463496,-2.5020258,-9.443611,4000
51150127,-0.0013081214,0.045656484,0.3839498,4000,0,-0.6470542,0.7633896,-9.600444,4000
51154127,-0.005934298,0.03577542,0.41133156,4000,0,0.9435136,0.14804819,-9.738514,4000
51158127,-0.010425452,0.005759138,0.20142725,4000,0,-0.48161805,0.5855458,-10.129118,4000
51162127,0.05892947,-0.0036544176,-0.15133187,4000,0,-0.12193806,1.3408012,-9.874464,4000
51166127,-0.023471454,-0.05218028,-0.38276055,4000,0,0.1301771,-0.7607995,-9.94379,4000
51170126,0.026987504,-0.0058353595,-0.4311598,3999,0,-0.53699285,-0.42253307,-9.537822,3999
51174126,-0.032482058,-0.011667486,-0.19139712,4000,0,0.5743079,-1.8536631,-9.704327,4000
51178127,-0.039383236,0.011907097,0.12607828,4001,0,-0.103495166,-0.725485,-9.638397,4001
51182127,-0.009843457,0.026011106,0.3859839,4000,0,-0.5032335,-0.07778672,-9.473706,4000
51186127,-0.026045922,0.031271204,0.3985008,4000,0,1.3495733,1.1860514,-9.89222,4000
51190127,0.02129085,0.013279379,0.17314778,4000,0,-1.1564646,-0.014719142,-9.613699,4000
51194130,0.021522466,0.00012144764,-0.10176453,4003,0,0.35421684,1.8471259,-10.246986,4003
51198126,0.010194753,-0.030856498,-0.3853939,3996,0,-0.05462777,-0.87027276,-9.62534,3996
51202126,0.006298084,-0.02649508,-0.36968565,4000,0,-0.20737843,-0.8166078,-9.665608,4000
51206127,-0.0074978108,-0.011260916,-0.19141819,4001,0,1.0275488,-1.2843091,-9.584335,4001
51210127,-0.05750625,-0.00882594,0.16867077,4000,0,-0.4071094,-1.42488,-9.561689,4000
51214127,-0.0038652555,0.036552224,0.34959525,4000,0,0.21391988,0.12781823,-9.435778,4000
51218127,-0.015511424,0.012191014,0.38693878,4000,0,0.13022912,0.39928126,-9.838195,4000
51222126,0.022310589,0.049247652,0.1569454,3999,0,-0.7326199,1.6290066,-9.924357,3999
51226126,0.028892776,-0.013840757,-0.16156663,4000,0,0.4854205,0.43795907,-10.116059,4000
51230126,-0.0119165955,-0.028942617,-0.37470692,4000,0,0.23895073,0.1796269,-9.801758,4000
51234127,0.016665991,-0.023981761,-0.3724159,4001,0,-0.036958866,-1.8420783,-9.541779,4001
51238126,-0.017083598,-0.037677787,-0.15042284,3999,0,-0.12484001,-1.1273718,-9.6168585,3999
51242126,-0.020822586,0.018778183,0.17169213,4000,0,0.5516484,-0.36287934,-9.56595,4000
51246126,-0.05222872,0.026147721,0.3863804,4000,0,-0.7912885,-0.94133675,-9.381608,4000
51250127,0.018523687,0.040500835,0.37665904,4001,0,0.5541796,1.3296894,-9.821011,4001
51254126,0.005101706,0.03092013,0.15616271,3999,0,-0.17466283,0.916234,-10.0412855,3999
51258127,0.027066387,-0.008367332,-0.18479107,4001,0,-0.15813628,0.55787855,-10.000312,4001
51262127,0.012802283,-0.03649312,-0.36466557,4000,0,0.75638634,-0.5326347,-9.718243,4000
51266127,-0.012192813,-0.03445632,-0.35431963,4000,0,-0.37697965,-0.71959615,-9.731796,4000
51270127,-0.017000306,-0.026613547,-0.11964006,4000,0,0.54163104,-1.6224808,-9.468366,4000
51274127,-0.0503544,0.012468284,0.18507385,4000,0,-0.32020885,0.04906891,-9.714738,4000
51278131,-0.008579432,0.02636666,0.35199344,4004,0,-0.51633805,-1.3534119,-9.482374,4004
51282127,0.011494055,0.038513757,0.3307393,3996,0,0.42027536,1.790089,-9.9553795,3996
51286126,0.019336559,0.049955577,0.0874561,3999,0,-0.73634875,0.9734089,-9.884252,3999
51290128,0.0044399886,-0.02788053,-0.21489444,4002,0,-0.43124765,-0.6684841,-9.973676,4002
51294126,0.026975691,-0.012151954,-0.37117213,3998,0,1.2724977,0.7433558,-9.800673,3998
51298127,-0.033662915,-0.04771937,-0.3208022,4001,0,-1.0337216,-3.230578,-9.2742,4001
51302128,-0.028045896,-0.022961494,-0.0395945,4001,0,0.8738376,0.8502313,-9.800226,4001
51306926,-0.03374483,0.018609421,0.24347991,4798,0,-0.19786239,-1.582761,-9.382145,4798
51310927,-0.008102627,0.039553344,0.35407144,4001,0,0.21377781,0.8871123,-9.889047,4001
51314926,0.030244354,0.050460868,0.2430929,3999,0,0.5699552,1.8054773,-9.806647,3999
51318926,-0.021559067,-0.0038251723,-0.0040129256,4000,0,-1.2298838,-0.3723512,-9.966553,4000
51322927,0.06930521,-0.020933505,-0.28342244,4001,0,1.2080611,0.51340467,-9.800103,4001
51326927,-0.013992753,-0.04414911,-0.37042007,4000,0,-0.048243567,-0.60940504,-9.780987,4000
51330927,-0.019144502,-0.008669254,-0.29417226,4000,0,-0.38570532,-1.6494069,-9.45602,4000
51334925,-0.019859387,-0.023253439,0.07732339,3998,0,0.9461863,0.017653475,-9.629469,3998
51338926,-0.050184935,0.02585698,0.31030658,4001,0,-0.18518186,-1.5280406,-9.482873,4001
51342926,0.018834978,0.021982279,0.39245185,4000,0,-0.4136756,0.24693769,-9.64943,4000
51346927,0.015923966,0.05115234,0.2515773,4001,0,1.4497204,1.3317378,-9.930687,4001
51350926,-0.019710446,0.0015662304,-0.052991007,3999,0,-1.1856054,-0.097282715,-9.726637,3999
51354927,0.040979695,-0.020849409,-0.30576804,4001,0,-0.0471028,0.74722904,-9.863728,4001
51358926,-0.00183509,-0.044311345,-0.4358689,3999,0,0.82533276,-0.41993728,-9.874996,3999
51362926,-0.03373237,-0.01970113,-0.28223756,4000,0,-1.127618,-2.1231403,-9.286153,4000
51366926,0.0055039506,-0.003675415,0.06275319,4000,0,1.5047891,-0.14447707,-9.664043,4000
51370925,-0.05299367,0.0063165803,0.3486274,3999,0,-0.6140677,-0.9056205,-9.519886,3999
51374927,0.0127721755,0.047890842,0.43749973,4002,0,0.25167343,0.3455201,-9.66512,4002
51378926,0.008076522,0.034980804,0.2922358,3999,0,0.17074472,1.3220981,-10.15235,3999
51382926,0.0039296043,0.012716413,-0.04820518,4000,0,-1.5922265,0.539574,-9.988964,4000
51386926,0.034507975,-0.039417703,-0.33540568,4000,0,1.5675408,0.11043234,-9.921858,4000
51390926,-0.03018919,-0.0485413,-0.43735555,4000,0,-0.09510514,-0.5379726,-9.510199,4000
51394925,0.0030897814,-0.011684947,-0.31156015,3999,0,-0.10419552,-1.7805113,-9.132274,3999
51398926,-0.028625827,-0.007315235,0.050767347,4001,0,1.023132,-0.41780165,-9.983413,4001
51402928,-0.026755782,0.03152593,0.27465114,4002,0,-1.3690743,-1.2868439,-9.456393,4002
51406927,-0.0056560705,0.022226062,0.43033442,3999,0,0.30410135,0.7646725,-9.753039,3999
51410926,0.00396031,0.04191854,0.29975784,3999,0,0.78623605,1.5350137,-10.260627,3999
51414927,0.016338356,0.0018825048,-0.027472617,4001,0,-1.4609697,-1.1470827,-9.690781,4001
51418926,0.050593518,-0.023779443,-0.27751172,3999,0,1.689486,2.6386826,-10.137924,3999
51422926,-0.026385048,-0.017402617,-0.4430728,4000,0,-0.61022365,-2.1518185,-9.364976,4000
51426926,-0.030958155,-0.028205857,-0.27656615,4000,0,-0.62627363,-0.97788763,-9.627804,4000
51430926,0.018154474,-0.0079026325,0.0008705346,4000,0,1.5214571,-0.64530545,-9.828903,4000
51434926,-0.05776451,-0.004287491,0.27699894,4000,0,-1.4280818,-1.3679227,-9.491588,4000
51438927,0.018757544,0.048924346,0.4256501,4001,0,1.0347486,1.5314813,-9.753302,4001
51442927,-0.025152193,0.016001666,0.33304673,4000,0,0.11983192,-1.1271278,-9.950219,4000
51446926,0.030876504,0.01601022,0.019936329,3999,0,-0.69978374,1.6324652,-9.879413,3999
51450926,0.035468243,-0.023095708,-0.28152752,4000,0,0.87511885,0.39559147,-9.989252,4000
51454926,-0.03674569,-0.027462302,-0.44941086,4000,0,-0.7138507,-0.82065606,-9.658668,4000
51458926,0.015289294,-0.02156359,-0.32252708,4000,0,0.93286353,-0.46828404,-9.507129,4000
51462927,-0.04365473,-0.014762109,-0.072313055,4001,0,-0.20518546,-2.3327944,-9.506822,4001
51466927,-0.0076560546,0.019392058,0.25405064,4000,0,-0.5455529,-1.0288148,-9.3471985,4000
51470926,-0.01322752,0.0264203,0.4434138,3999,0,0.29179484,0.932891,-9.924005,3999
51474927,-0.017700557,0.046032965,0.35536116,4001,0,-0.19383311,1.1702604,-10.112539,4001
51478927,0.0213285,0.0063086785,0.1182265,4000,0,-0.21620555,0.49053589,-10.004673,4000
51482928,0.029917113,-0.014322521,-0.24705648,4001,0,0.2944004,0.6044487,-9.873247,4001
51486926,0.00017922251,-0.046925347,-0.4017221,3998,0,0.12199751,-0.83761793,-9.508306,3998
51490929,0.0057407958,-0.028882915,-0.3621703,4003,0,-0.5397034,-0.5660871,-9.505273,4003
51494927,-0.043145843,-0.00990702,-0.11587542,3998,0,0.515513,-1.9903511,-9.363207,3998
51498926,-0.04015905,0.01991544,0.22151898,3999,0,-0.2862331,-0.12139847,-9.689496,3999
51502927,0.0055942154,0.029198129,0.3855708,4001,0,0.27075806,-0.6949595,-9.737332,4001
51506927,-0.017673409,0.025942946,0.3773598,4000,0,0.0082480395,0.95851684,-9.987319,4000
51510930,0.04044067,0.03079927,0.11447844,4003,0,0.026692087,1.134115,-10.025105,4003
51514926,0.00583698,-0.031546228,-0.20152327,3996,0,-0.04785698,0.02550025,-9.815251,3996
51518926,0.025198212,-0.017796991,-0.39701605,4000,0,0.48467663,0.26263586,-9.62031,4000
51522927,-0.014793473,-0.035869975,-0.3977639,4001,0,-1.1087118,-1.9804267,-9.347746,4001
51526927,-0.03177542,-0.010166661,-0.12707183,4000,0,1.2801267,-0.06306701,-9.626011,4000
51530926,-0.04861079,0.023494769,0.23047984,3999,0,0.13433602,-1.3988883,-9.736041,3999
51534926,-0.017013045,0.024761183,0.3974797,4000,0,-1.0132712,-0.4071292,-9.550683,4000
51538927,0.052449252,0.0346602,0.3593831,4001,0,1.1765299,1.1643498,-9.724052,4001
51542927,-0.012733179,0.01865458,0.17088868,4000,0,-0.7172975,1.2435876,-10.280697,4000
51546926,0.03528326,-0.0048864423,-0.19184712,3999,0,-0.5958815,0.058063947,-9.675053,3999
51550926,0.0060270205,-0.048117194,-0.37622425,4000,0,1.4177499,0.09790864,-9.994388,4000
51554926,-0.022912858,0.005504058,-0.40855092,4000,0,-0.7542356,-1.6185577,-9.415128,4000
51558926,-0.009413847,-0.041223936,-0.18506503,4000,0,0.5210034,-2.1922722,-9.379974,4000
51562926,-0.035873763,0.0071001784,0.18485081,4000,0,0.3043716,1.1989549,-10.1243515,4000
51566928,-0.041302133,0.012540482,0.36609226,4002,0,-0.9274392,-2.0977333,-9.046794,4002
51570934,0.01383781,0.03692359,0.40791932,4006,0,1.2166681,2.0260108,-10.197697,4006
51574927,0.026759278,0.05749471,0.13984984,3993,0,-0.43217388,1.1839855,-9.889945,3993
51578927,0.0069041015,-0.029207975,-0.12912102,4000,0,-0.1713488,-0.20275633,-9.995338,4000
51582927,0.035262473,-0.018435203,-0.37055254,4000,0,1.2498056,1.0964597,-9.95074,4000
51586927,-0.025304059,-0.05383861,-0.3757511,4000,0,-1.4126599,-2.553658,-9.3528595,4000
51590926,-0.015128233,-0.02416988,-0.18772508,3999,0,1.1122873,0.30541706,-9.314054,3999
51594927,-0.042161148,0.02457838,0.17448068,4001,0,0.1906959,-1.4349996,-9.619159,4001
51598927,-0.043377303,0.014815045,0.36815235,4000,0,-0.94687265,-0.8481214,-9.422309,4000
51602926,0.06415555,0.022263592,0.4022592,3999,0,1.0222881,1.0200392,-10.121306,3999
51606927,0.021651447,0.039672192,0.14203107,4001,0,-1.1724516,0.65884113,-10.161141,4001
51610927,0.022481125,-0.017995026,-0.16629837,4000,0,0.20153086,0.6062666,-9.884276,4000
51614926,-0.02526612,-0.01399302,-0.34722698,3999,0,0.62228936,0.4043072,-9.960412,3999
51618926,-0.026385173,-0.02727144,-0.38772196,4000,0,-0.5898714,-2.2793255,-9.267088,4000
51622927,0.0013942644,-0.031684738,-0.16489202,4001,0,0.87982273,0.06591844,-9.399803,4001
51626926,-0.032640398,0.030198557,0.13089252,3999,0,-0.2772372,-1.4153194,-9.259538,3999
51630927,-0.03899292,0.00094845006,0.36690277,4001,0,-0.54343945,-0.5539034,-9.706681,4001
51634926,0.036942594,0.04136773,0.388608,3999,0,0.9020585,2.026005,-10.013197,3999
51638926,-0.0044472567,0.020641204,0.18392456,4000,0,-0.84356576,-1.1238201,-9.8518305,4000
51642929,0.04956025,-0.007799502,-0.12995996,4003,0,0.18590724,2.4402719,-10.213125,4003
51646926,-0.004788868,-0.008368449,-0.3799059,3997,0,0.6649392,-0.83132803,-9.8410225,3997
51650926,-0.03787474,-0.035392907,-0.39415815,4000,0,-0.82559,-1.245077,-9.568413,4000
51654927,0.022708612,-0.013061718,-0.1959458,4001,0,1.0801973,0.009882383,-9.081003,4001
51658926,-0.061235122,-0.0034330562,0.14590906,3999,0,0.05365675,-2.0484722,-9.5750265,3999
51662927,0.0043196473,0.019221708,0.3607329,4001,0,-0.46211854,-0.4796013,-9.570697,4001
51666927,0.0096575115,0.030988509,0.40126425,4000,0,0.17013434,0.9389907,-10.097595,4000
51670926,-0.010748054,0.030747438,0.18410575,3999,0,-0.07823547,0.5887558,-10.148143,3999
51674927,0.00960351,-0.0040916638,-0.136775,4001,0,-0.75244015,1.0367967,-10.055422,4001
51678926,0.0056010373,-0.029197583,-0.37227088,3999,0,0.7374383,0.28223267,-9.817389,3999
51682926,0.003714977,-0.044386975,-0.4384596,4000,0,-0.30413225,-1.8767707,-9.371563,4000
51686926,-0.013982594,-0.017887024,-0.18481131,4000,0,0.8422778,-0.5925378,-9.474414,4000
51690927,-0.041261863,0.018070482,0.13060662,4001,0,0.53383154,-1.7366884,-9.313487,4001
51694927,-0.032910854,0.025533967,0.37771195,4000,0,-1.2100247,0.08682113,-9.737937,4000
51698926,0.004030322,0.053458277,0.4014686,3999,0,1.0544596,1.2226777,-9.929501,3999
51702926,-0.0094470475,-0.007305264,0.23375528,4000,0,-1.0276148,0.3711847,-10.299782,4000
51706927,0.053111885,-0.010647421,-0.11845203,4001,0,0.18947802,0.97185624,-9.863936,4001
51710929,0.008131039,-0.051188234,-0.3705071,4002,0,0.5942484,-0.13344096,-9.735213,4002
51714926,-0.025704918,-0.01572885,-0.45309964,3997,0,-0.4080429,-1.0641557,-9.396316,3997
51718926,-0.0044097407,0.011956352,-0.24894002,4000,0,0.5490875,-1.104921,-9.375043,4000
51722927,-0.043454856,0.005074414,0.09326126,4001,0,-0.28436026,-1.9773173,-9.383467,4001
51726926,0.004842422,0.027841346,0.34502214,3999,0,-0.311874,-0.16520913,-9.585544,3999
51730926,-0.010711721,0.009497411,0.4670945,4000,0,0.6112587,1.600061,-10.042842,4000
51734926,0.0022357798,0.028022554,0.25445798,4000,0,-0.27706307,-0.10595247,-10.10307,4000
51738927,0.032112136,-0.017377963,-0.046376944,4001,0,0.19605246,1.4156007,-9.939412,4001
51742927,0.0121320635,-0.0038683037,-0.3617423,4000,0,0.44379032,0.37301296,-10.087206,4000
51746926,-0.008909512,-0.039865606,-0.4466667,3999,0,-0.8152091,-1.7373854,-9.486195,3999
51750926,0.002998784,-0.005198548,-0.2643049,4000,0,0.9553772,-0.1791383,-9.523922,4000
51754926,-0.044567876,-0.014350455,0.04336933,4000,0,-0.640425,-2.6129801,-9.362085,4000
51758926,-0.016812123,0.029379593,0.35545638,4000,0,-0.11774094,0.9506138,-9.564015,4000
51762926,0.0015970104,0.02904259,0.43088794,4000,0,0.09590237,-0.38889262,-9.706487,4000
51766927,-0.0006984977,0.029547416,0.30363572,4001,0,-0.004232982,0.76952493,-10.117955,4001
51771727,0.029852271,0.0029087965,-0.053044274,4800,0,0.43268085,1.9873602,-10.050367,4800
51775726,-0.017035818,-0.03131998,-0.3617174,3999,0,-0.30514157,-1.111872,-9.724679,3999
51779726,0.04511058,-0.024913872,-0.42713252,4000,0,0.7311582,-0.17946415,-9.707125,4000
51783727,-0.036880903,-0.022626437,-0.264357,4001,0,-0.7538075,-1.554015,-9.580675,4001
51787727,-0.028952193,-0.0016950349,0.032703705,4000,0,0.24019676,-1.3410175,-9.528824,4000
51791727,-0.030111488,0.021676363,0.3607136,4000,0,0.22027875,0.14579284,-9.728229,4000
51795726,-0.017274143,0.039099958,0.3959448,3999,0,-0.15139642,-0.36169383,-9.538299,3999
51799727,0.030713854,0.03708442,0.29767135,4001,0,0.020422969,1.7807112,-10.043747,4001
51803726,0.011797651,0.010785203,-0.012353066,3999,0,0.07952395,0.5785643,-9.9315605,3999
51807727,0.015594949,-0.045569338,-0.3198194,4001,0,-0.95644593,-0.39833117,-9.804636,4001
51811727,0.022932084,-0.03989263,-0.4004992,4000,0,0.9803292,0.28576973,-9.666015,4000
51815725,-0.03154237,-0.015390723,-0.34246454,3998,0,-0.48292804,-1.7701523,-9.750512,3998
51819726,-0.03920234,-0.0049251593,-0.006335478,4001,0,-0.376876,-0.97867435,-9.254152,4001
51823727,-0.010142494,0.027128471,0.32692248,4001,0,1.0419083,-0.36110935,-9.742247,4001
51827725,-0.028664192,0.022135764,0.43034327,3998,0,-1.1291356,-0.22017188,-9.661066,3998
51831726,0.048306003,0.046570085,0.32501164,4001,0,0.5150768,1.6348926,-10.045233,4001
51835728,-0.001886713,0.0013092392,0.04986598,4002,0,-0.3134911,0.27860144,-10.047652,4002
51839727,0.019708857,-0.008400204,-0.27516586,3999,0,-0.44286573,0.8921432,-9.942178,3999
51843725,0.020275928,-0.04819956,-0.4285828,3998,0,1.0927445,-0.7082905,-9.748359,3998
51847727,-0.039007265,-0.023776062,-0.35573366,4002,0,-0.21418883,-1.3447956,-9.596332,4002
51851726,-0.014135785,0.00640463,-0.066434205,3999,0,0.40609345,-1.2514753,-9.385081,3999
51855727,-0.04147417,0.012775583,0.25328386,4001,0,-0.019529171,-0.6551148,-9.65977,4001
51859727,-0.0018305888,0.037027597,0.37805387,4000,0,-0.5471335,0.07736195,-9.432326,4000
51863727,-0.0052389773,0.015938276,0.36726353,4000,0,0.39763743,1.8861357,-10.168859,4000
51867727,0.026725544,0.020047478,0.06158735,4000,0,-0.656648,0.11637543,-9.907696,4000
51871727,0.037163086,-0.038218778,-0.22414728,4000,0,0.6359324,-0.036639597,-9.859077,4000
51875726,0.00090910395,-0.0187177,-0.40620553,3999,0,0.62552583,0.20290267,-9.9102335,3999
51879726,-0.02496083,-0.02547335,-0.3421285,4000,0,-0.69996357,-2.5722938,-9.289009,4000
51883726,-0.026447512,0.0013098792,-0.075055525,4000,0,0.2782768,-0.15826254,-9.808525,4000
51887727,-0.019261073,0.01727781,0.20229825,4001,0,0.47517616,-1.7147391,-9.382229,4001
51891727,-0.03711902,0.032810222,0.41634548,4000,0,-0.59910524,1.038659,-9.743263,4000
51895726,0.022028996,0.033477318,0.3715526,3999,0,0.76293236,1.0809785,-10.020551,3999
51899727,0.009915356,-0.0037282498,0.14300895,4001,0,-0.8941362,-0.16234896,-9.962405,4001
51903727,0.05275399,-0.023490839,-0.22139211,4000,0,1.0287523,2.1215785,-9.986247,4000
51907728,-0.010639149,-0.033151638,-0.41550475,4001,0,-0.45590296,-1.604495,-9.57089,4001
51911727,-0.01261376,-0.017255321,-0.4073729,3999,0,0.5386791,-0.20413747,-9.645121,3999
51915726,-0.019786099,0.0092924265,-0.16500644,3999,0,-0.08449181,-1.2394899,-9.612853,3999
51919728,-0.0328343,0.006726924,0.16441505,4002,0,-0.36107734,-2.1997573,-9.25317,4002
51923726,0.001075768,0.026306529,0.4114403,3998,0,0.31656593,0.6071797,-9.743892,3998
51927727,-0.023636643,0.018095694,0.4367261,4001,0,-0.345026,0.68349093,-9.809982,4001
51931728,0.01729055,0.022564812,0.21697949,4001,0,0.64979756,0.292456,-9.950034,4001
51935740,0.027443573,-0.010376715,-0.121753395,4012,0,-0.50440663,1.997952,-10.393339,4012
51939726,0.015354604,-0.021313353,-0.40731302,3986,0,0.3815178,-0.757731,-9.707261,3986
51943727,0.007637568,-0.0441003,-0.4086048,4001,0,-0.092864655,-0.2444157,-9.810529,4001
51947727,-0.014466193,-0.0030406697,-0.25851768,4000,0,-0.3663894,-1.5168171,-9.383232,4000
51951728,-0.051368438,-0.017645592,0.095491156,4001,0,0.45350447,-1.5612997,-9.304849,4001
51955729,-0.0058368426,0.051918957,0.37663186,4001,0,0.21946438,0.88904476,-9.743119,4001
51959727,-0.018957023,0.025363604,0.40705016,3998,0,-0.9024939,-1.2967229,-9.2479515,3998
51963728,0.031833027,0.014836201,0.27115262,4001,0,0.91910857,2.7277985,-10.355247,4001
51967726,0.0125873,0.019817427,-0.10781467,3998,0,-1.0279361,-0.2882865,-9.704414,3998
51971728,0.008097793,-0.06267623,-0.3226866,4002,0,0.5010944,0.19287609,-9.929936,4002
51975727,0.022550758,-0.0065254224,-0.40288112,3999,0,0.8304717,-0.25322866,-9.722884,3999
51979727,-0.06402345,-0.0143752545,-0.23079532,4000,0,-1.0096626,-2.4165633,-9.527519,4000
51983728,-0.0020469616,0.005092233,0.0689802,4001,0,1.4108949,0.16386847,-9.322056,4001
51987727,-0.043745376,0.028149111,0.36513036,3999,0,-0.46300468,-0.31187153,-9.888933,3999
51991726,-0.02088697,0.025950097,0.37543705,3999,0,-0.36684242,-0.1086794,-9.655901,3999
51995728,0.05541795,0.00047211713,0.2505912,4002,0,0.35172936,1.8203075,-10.287097,4002
51999727,0.014087382,0.021062555,-0.108613126,3999,0,-0.59250075,0.026274614,-9.910057,3999
52003727,0.038861163,-0.04457611,-0.35878295,4000,0,0.36291802,-0.2971445,-9.620475,4000
52007728,-0.015901996,-0.020495418,-0.38956612,4001,0,0.37075236,-0.34328464,-9.874536,4001
52011726,-0.04048971,0.00047513968,-0.2733278,3998,0,-0.39324224,-2.65353,-9.159527,3998
52015727,-0.029195538,-0.013133606,0.09332557,4001,0,0.021597102,-0.023856647,-9.449711,4001
52019728,-0.031109598,0.04409012,0.32699344,4001,0,1.0332468,-0.23699047,-9.54376,4001
52023726,-0.025863802,0.006386918,0.44115984,3998,0,-1.089231,0.19151066,-9.773193,3998
52027727,0.06257307,0.03789391,0.24930699,4001,0,0.68129224,1.5529044,-10.335301,4001
52031727,0.012438019,-0.012036989,-0.08804985,4000,0,-1.0677851,0.08795497,-9.974155,4000
52035726,0.019411484,-0.008695776,-0.34197372,3999,0,0.59263194,1.1545991,-9.886872,3999
52039727,-0.015483055,-0.031356435,-0.4172531,4001,0,-0.02820022,-1.6749964,-9.35068,4001
52043727,-0.031016517,-0.01846653,-0.23209837,4000,0,-0.1566337,-1.1056861,-9.467409,4000
52047727,-0.023452584,-0.0013027492,0.099488646,4000,0,1.0380062,-0.85136867,-9.499005,4000
52051726,-0.060651205,0.018308172,0.34115666,3999,0,-0.81540924,-0.9186244,-9.53209,3999
52055727,0.03437512,0.030015072,0.4057966,4001,0,0.21050708,0.2735311,-9.674086,4001
52059727,0.017991213,0.022308625,0.22532752,4000,0,-0.51803523,1.2510468,-10.442012,4000
52063727,0.0368798,0.007806849,-0.12716071,4000,0,-0.31250083,0.8577751,-9.932154,4000
52067727,-0.009967946,-0.031088103,-0.32940146,4000,0,1.1337543,0.057459973,-10.171412,4000
52071727,-0.02924131,-0.029991953,-0.41207984,4000,0,-0.29351747,-1.0485505,-9.178262,4000
52075726,-0.0045986767,-0.03199158,-0.21616505,3999,0,0.04279273,-1.1714803,-9.610678,3999
52079727,-0.026804188,0.015300078,0.08460904,4001,0,0.9592557,-0.74143124,-9.394797,4001
52083727,-0.03916654,0.018648727,0.34274346,4000,0,-1.0779254,-1.0212703,-9.460081,4000
52087730,0.014058594,0.045580722,0.41731587,4003,0,0.67312837,1.5629708,-9.893683,4003
52091727,0.020831494,0.021294683,0.23875125,3997,0,-0.13174258,0.0036320193,-9.96078,3997
52095727,0.028705867,-0.023809103,-0.07000734,4000,0,-0.45013216,0.7901053,-10.1084385,4000
52099727,0.02772324,-0.019542683,-0.3368387,4000,0,0.98401785,0.4317501,-9.97788,4000
52103727,-0.04680806,-0.05314171,-0.40469268,4000,0,-1.0809947,-2.2525961,-9.576767,4000
52107728,0.0013077523,0.009714059,-0.2482925,4001,0,0.6377177,0.0028492012,-9.489947,4001
52111727,-0.04757571,0.007856781,0.062485278,3999,0,0.11756075,-2.4289944,-9.351837,3999
52115727,-0.012488275,0.03510741,0.32018906,4000,0,-0.0061358,0.24385107,-9.563729,4000
52119726,0.006008187,0.029466508,0.39910272,3999,0,0.20202622,0.7806698,-9.736223,3999
52123727,-0.011920781,0.014598064,0.24857955,4001,0,-0.31266284,1.331569,-9.912129,4001
52127728,0.039132338,-0.01159177,-0.07022504,4001,0,0.5578989,0.16945153,-10.026783,4001
52131726,0.007919276,-0.023518872,-0.3175363,3998,0,0.31431162,0.20386246,-10.034175,3998
52135726,0.006262705,-0.0346466,-0.41477543,4000,0,0.053348575,-1.3658081,-9.6375,4000
52139728,-0.010402052,-0.0098746,-0.20729369,4002,0,-0.23917812,-0.18834518,-9.720655,4002
52143727,-0.040147938,0.009187627,0.08113798,3999,0,0.32211685,-2.4172056,-9.197862,3999
52147726,-0.031017981,0.019975342,0.36124095,3999,0,-0.096782,0.36316547,-9.725295,3999
52151728,3.129585e-06,0.048333086,0.4000334,4002,0,0.06514665,0.7035343,-9.611924,4002
52155728,-0.01041637,-0.0031876923,0.23747839,4000,0,-0.4213586,0.33389854,-10.12434,4000
52159726,0.054818884,0.0055392897,-0.11261038,3998,0,-0.22409657,2.1837428,-10.022529,3998
52163727,-0.0010545836,-0.04389977,-0.37391198,4001,0,0.7061659,-1.5675012,-9.534157,4001
52167726,-0.01806681,-0.025923174,-0.3937764,3999,0,0.18114711,-0.30210614,-9.778654,3999
52171727,-0.0027594753,0.004874262,-0.2354633,4001,0,-0.17930199,-2.1385887,-9.323036,4001
52175727,-0.054044716,-0.014323832,0.107607104,4000,0,0.19925453,-0.90821016,-9.717043,4000
52179726,-0.002395305,0.045186896,0.34497765,3999,0,-0.14647613,0.5306553,-9.653296,3999
52183726,-0.029361373,0.008126883,0.41159734,4000,0,-0.58260375,0.08698997,-9.599983,4000
52187728,0.044047676,0.02347382,0.2146767,4002,0,0.6763438,1.4452922,-10.162369,4002
52191727,0.026052933,0.007280759,-0.11119037,3999,0,-0.454404,0.21933573,-9.785359,3999
52195727,0.0070217317,-0.029841352,-0.35115123,4000,0,0.4040305,0.23443897,-9.850037,4000
52199727,0.001599565,-0.02071876,-0.37447533,4000,0,-0.24793935,-1.2385525,-9.631521,4000
52203726,-0.04764818,-0.014771523,-0.20769997,3999,0,-0.01635942,-1.7584462,-9.492168,3999
52207728,-0.018904302,0.007423645,0.14134918,4002,0,0.84022135,0.12046883,-9.819675,4002
52211728,-0.032776687,0.045124378,0.33612558,4000,0,-1.1936665,-0.049004994,-9.544242,4000
52215728,0.01057954,0.02096885,0.36348101,4000,0,0.86769134,0.4435027,-9.793232,4000
52219727,0.02610536,0.021562813,0.18304946,3999,0,-0.2281157,1.9501642,-10.143912,3999
52223728,0.029350672,-0.01029726,-0.16932352,4001,0,-0.5578271,-1.2832817,-9.538181,4001
52227726,0.02186901,-0.0480218,-0.31859037,3998,0,1.3991897,0.46320435,-9.963848,3998
52231727,-0.005550853,-0.0075924727,-0.36207664,4001,0,-0.23098154,-1.3068248,-9.506776,4001
52236526,-0.044940554,-0.02310019,-0.12984921,4799,0,-0.5663724,-1.6803355,-9.633209,4799
52240527,-0.018670164,0.024749732,0.20980842,4001,0,0.90726405,0.64494866,-9.884634,4001
52244527,-0.06757611,0.015424418,0.37143293,4000,0,-1.0168697,-1.4154713,-9.468043,4000
52248525,0.05417083,0.02631773,0.3450804,3998,0,0.76889235,1.773545,-9.925043,3998
52252525,0.020956168,0.024776781,0.10035795,4000,0,-0.56487846,0.9465576,-9.819383,4000
52256526,0.015889557,-0.0221831,-0.22115001,4001,0,-0.679387,0.79458356,-9.667432,4001
52260526,0.033596836,-0.014088676,-0.37749013,4000,0,1.2779772,-0.48273608,-9.711752,4000
52264525,-0.05821452,-0.042136878,-0.34491208,3999,0,-0.34781766,-1.8630776,-9.565867,3999
52268526,-0.0052156793,-0.0047848476,-0.11332699,4001,0,0.52173966,-1.3679979,-9.484439,4001
52272527,-0.04765582,0.0034609695,0.22479549,4001,0,0.43508822,-0.14947344,-9.849572,4001
52276526,-0.021037988,0.02577898,0.36876708,3999,0,-0.5517791,-0.86363155,-9.601729,3999
52280525,0.038454663,0.025675867,0.37576815,3999,0,0.31740123,1.6491663,-9.970651,3999
52284525,0.016729817,0.030270532,0.11421357,4000,0,0.05281914,0.90400285,-9.821875,4000
52288526,0.01974137,-0.028058749,-0.19158432,4001,0,-0.56643254,-0.47153232,-9.777678,4001
52292528,0.01712769,-0.015221198,-0.3903229,4002,0,1.1179576,0.5814287,-9.775746,4002
52296527,-0.038843267,-0.038147774,-0.37986654,3999,0,-0.56017864,-1.8775043,-9.538057,3999
52300526,-0.020859616,-0.0034136765,-0.16583152,3999,0,-0.24157013,-0.8269058,-9.606464,3999
52304526,-0.02864656,0.015019583,0.16376305,4000,0,0.87414974,-1.4055555,-9.463753,4000
52308527,-0.03719081,0.03058006,0.39716128,4001,0,-0.78880024,0.832792,-9.786338,4001
52312526,0.025507715,0.04785061,0.4084834,3999,0,0.45044568,0.5774652,-9.7276945,3999
52316527,0.011656602,-0.00065219775,0.21041079,4001,0,0.19505626,0.71951747,-10.222279,4001
52320526,0.05192791,-0.011342654,-0.15860115,3999,0,-0.5462372,0.86732066,-9.699138,3999
52324527,-0.0046059657,-0.04128699,-0.36006054,4001,0,0.6214288,-0.28344166,-9.936618,4001
52328526,-0.008363814,-0.023992987,-0.4300305,3999,0,-0.31413436,-1.1937602,-9.517339,3999
52332526,-0.024827823,0.0005604479,-0.19714317,4000,0,0.27823853,-1.4596577,-9.515159,4000
52336526,-0.040385887,0.024498487,0.12263849,4000,0,-0.037139293,-0.9026898,-9.476187,4000
52340525,-0.015630793,0.025239384,0.3527449,3999,0,-0.8875227,-0.048266023,-9.699706,3999
52344525,-0.014672054,0.025772156,0.40566167,4000,0,0.67785645,1.8467326,-9.966551,4000
52348526,0.009616258,0.004449757,0.1995159,4001,0,-0.6243898,-0.48238316,-9.707182,4001
52352526,0.049297273,-0.018536925,-0.10267769,4000,0,-0.19348523,1.6118876,-9.902078,4000
52356527,0.029244993,-0.016128436,-0.36753398,4001,0,0.7656943,-0.42499048,-9.700271,4001
52360527,-0.034679413,-0.038146496,-0.40437546,4000,0,-0.8258411,-1.3553852,-9.848064,4000
52364526,-0.01772563,0.01796109,-0.22008793,3999,0,0.8501906,0.07467167,-9.689377,3999
52368559,-0.0642258,-0.01446019,0.110074185,4033,0,-0.20381145,-2.7958755,-9.558243,4033
52372526,0.009436614,0.041360505,0.35153484,3967,0,0.101187006,0.9676256,-9.588977,3967
52376526,0.008731167,0.01588624,0.4265887,4000,0,0.28550398,-0.296903,-9.543236,4000
52380527,0.0034590296,0.0072820415,0.23953688,4001,0,0.48902085,0.7344365,-10.261583,4001
52384526,0.036189996,0.007746437,-0.09971836,3999,0,-0.1136808,1.9159657,-9.889728,3999
52388526,-0.018765809,-0.039811764,-0.36066544,4000,0,-0.04891817,-0.55661124,-9.91512,4000
52392526,0.020311872,-0.01096899,-0.4275727,4000,0,0.1648914,-0.65847707,-9.478524,4000
52396526,-0.023972066,-0.026225489,-0.22082546,4000,0,-0.47310916,-1.4518869,-9.726948,4000
52400527,-0.019541906,-0.003084622,0.053985555,4001,0,0.14512008,-1.6129745,-9.41084,4001
52404526,-0.03309449,0.014947126,0.37065476,3999,0,0.19599634,0.8924675,-9.809853,3999
52408527,-0.02690007,0.045108736,0.39311776,4001,0,-0.41106334,-0.4420119,-9.438149,4001
52412533,0.03259615,0.016945554,0.26997602,4006,0,0.8487067,1.1699587,-10.146967,4006
52416527,0.03964445,0.028180238,-0.09813433,3994,0,-0.4521584,1.4691554,-9.819248,3994
52420527,-0.0047339676,-0.049243037,-0.34831446,4000,0,-0.20553128,-1.5474399,-9.733362,4000
52424526,0.010236346,-0.020487143,-0.38760507,3999,0,0.5539176,0.6018087,-9.81654,3999
52428526,-0.04258221,-0.023609709,-0.24504378,4000,0,-0.7221679,-2.5358636,-9.396209,4000
52432527,-0.03784845,-0.0077058966,0.10469019,4001,0,0.55088085,0.1339469,-9.911842,4001
52436527,-0.0072513907,0.04182802,0.33151847,4000,0,-0.034788884,-0.91378146,-9.381043,4000
52440526,-0.024316987,0.009931069,0.38522607,3999,0,-0.2434095,0.48467374,-9.835842,3999
52444526,0.04904451,0.059573684,0.22078994,4000,0,0.56772023,1.9444975,-9.788385,4000
52448526,-0.006489472,-0.02286918,-0.08840067,4000,0,-0.56768066,-0.4510048,-9.786289,4000
52452527,0.04760745,-0.012594891,-0.31849763,4001,0,0.7961689,0.46165308,-9.838032,4001
52456527,-0.01872449,-0.047145516,-0.3614174,4000,0,-0.397417,-1.1223145,-9.668831,4000
52460559,-0.043101896,-0.00728178,-0.24658512,4032,0,-0.6715447,-1.4417288,-9.932109,4032
52464527,-0.029074527,-0.012022417,0.091549315,3968,0,0.6109647,0.015047006,-9.494882,3968
52468526,-0.06428101,0.04108387,0.34199405,3999,0,0.14644256,-0.60569406,-9.633442,3999
52472527,0.038823962,0.022574902,0.4005871,4001,0,-0.5548474,-0.029663205,-9.660334,4001
52476527,0.040901512,0.018406421,0.25890774,4000,0,0.4498681,1.9778746,-10.075067,4000
52480526,0.020954384,0.0002304591,-0.099277444,3999,0,-0.46506166,-0.5753112,-9.739565,3999
52484526,0.0010763943,-0.025329769,-0.317357,4000,0,-0.25766218,0.83645123,-9.686322,4000
52488526,-0.0124514485,-0.02599441,-0.41441205,4000,0,0.438765,-1.1898794,-9.577043,4000
52492527,-0.03339902,-0.014623071,-0.24205731,4001,0,-0.70366454,-1.7131804,-9.530684,4001
52496526,-0.015724992,0.017100932,0.07845649,3999,0,1.1976522,0.30183116,-9.458751,3999
52500527,-0.049253117,0.015632605,0.33522534,4001,0,-0.33124194,-1.381566,-9.732594,4001
52504526,0.01278918,0.031350385,0.39792892,3999,0,-0.037572827,1.2732888,-9.7128315,3999
52508527,0.014208968,0.008874926,0.22906609,4001,0,1.8823664,0.76501715,-10.144257,4001
52512526,0.030395968,-0.0072960267,-0.115881264,3999,0,-2.24669,0.060606875,-10.040787,3999
52516527,0.053811446,-0.027578223,-0.3657464,4001,0,0.79606384,0.7183484,-9.442558,4001
52520527,-0.055384185,-0.035471253,-0.39330518,4000,0,-0.73479736,-1.1335611,-9.805517,4000
52524527,-0.032635063,0.0076253326,-0.22554924,4000,0,-0.6222557,-1.2402034,-8.878216,4000
52528526,-0.03363689,0.0057301954,0.17343494,3999,0,1.9543132,-0.51679415,-10.228749,3999
52532526,-0.017317785,0.042451933,0.3512388,4000,0,-0.99220747,-1.0240096,-9.523852,4000
52536526,0.024457043,0.02444592,0.4195749,4000,0,-0.045824476,0.79447377,-9.989958,4000
52540527,0.007852613,0.013108926,0.18592654,4001,0,1.3023127,1.7486818,-10.295265,4001
52544526,-0.00024305536,-0.018450975,-0.1632232,3999,0,-1.738618,-0.7608543,-9.569486,3999
52548527,0.046559636,-0.042229064,-0.34221134,4001,0,1.3477194,0.974854,-9.895793,4001
52552559,-0.016268212,-0.02480991,-0.42096585,4032,0,-0.21909529,-1.5246917,-9.443173,4032
52556526,-0.049337447,0.004631761,-0.16624285,3967,0,-0.47318497,-1.3129671,-9.213855,3967
52560526,-0.01247542,0.022634028,0.15173809,4000,0,1.3431647,-0.9587782,-9.734658,4000
52564527,-0.055902444,0.021895126,0.35521722,4001,0,-1.632729,-0.3023425,-9.759224,4001
52568526,0.028073678,0.040226378,0.38421,3999,0,1.4327998,1.7051642,-9.947611,3999
52572526,0.0056958916,-0.007547489,0.16464002,4000,0,-1.0953777,-0.422301,-10.119723,4000
52576526,0.06330568,-0.014778791,-0.15905161,4000,0,0.09073641,1.6217663,-9.781706,4000
52580526,-0.00022988157,-0.038651336,-0.36122414,4000,0,0.7371169,-0.5505018,-9.989837,4000
52584526,-0.041800123,-0.010128584,-0.3655948,4000,0,-0.7079045,-1.1688644,-9.52176,4000
52588526,-0.0045466786,0.0092154145,-0.14272295,4000,0,1.0621322,-0.7835152,-9.486927,4000
