timestamp,rollspeed,pitchspeed,yawspeed,q[0],q[1],q[2],q[3],delta_q_reset[0],delta_q_reset[1],delta_q_reset[2],delta_q_reset[3],quat_reset_counter
49925029,-0.0007087982,0.0009794384,0.0011973754,0.99722993,0.008444503,0.0028841868,0.07384372,0.9984769,0.00021564154,0.000901479,0.055163834,1
49929063,0.0021554977,-0.00029007957,0.0016984167,0.9972297,0.008448787,0.0028838452,0.073846236,0.9984769,0.00021564154,0.000901479,0.055163834,1
49933039,0.00053583295,0.00048382138,0.003038758,0.99722934,0.00844967,0.0028848017,0.07385143,0.9984769,0.00021564154,0.000901479,0.055163834,1
49937058,0.00054917764,-0.0011277938,0.0023271418,0.99722904,0.0084508,0.0028825612,0.07385516,0.9984769,0.00021564154,0.000901479,0.055163834,1
49941070,0.0013036097,-0.0002877413,0.0017920254,0.99722886,0.008453289,0.0028821225,0.07385786,0.9984769,0.00021564154,0.000901479,0.055163834,1
49945032,0.0009868448,-0.0013514498,0.0017002921,0.9972287,0.0084552625,0.002879526,0.07386035,0.9984769,0.00021564154,0.000901479,0.055163834,1
49949042,0.00015211129,1.0192511e-05,0.00070011965,0.9972286,0.008455346,0.0028795435,0.07386085,0.9984769,0.00021564154,0.000901479,0.055163834,1
49953061,0.0004957642,0.0008355621,-0.00058849197,0.9972287,0.0084559815,0.0028812806,0.07385878,0.9984769,0.00021564154,0.000901479,0.055163834,1
49957100,0.0009060865,0.00095938786,0.00026770408,0.9972288,0.008457424,0.0028833179,0.073858455,0.9984769,0.00021564154,0.000901479,0.055163834,1
49961034,0.00079274713,-0.00041764177,0.00061341166,0.9972287,0.008458823,0.0028825868,0.073858775,0.9984769,0.00021564154,0.000901479,0.055163834,1
49965051,-0.0003888018,0.00012704195,0.0012187433,0.9972287,0.00845778,0.0028827635,0.07386025,0.9984769,0.00021564154,0.000901479,0.055163834,1
49969031,0.0006768601,0.0006574027,0.0011203614,0.99722844,0.008458773,0.0028841575,0.07386153,0.9984769,0.00021564154,0.000901479,0.055163834,1
49973049,0.00046443683,0.0011917884,0.0012120178,0.9972283,0.008459275,0.002886586,0.07386303,0.9984769,0.00021564154,0.000901479,0.055163834,1
49977047,-0.00038327626,-0.001047481,0.00092356134,0.9972284,0.00845841,0.0028844294,0.07386392,0.9984769,0.00021564154,0.000901479,0.055163834,1
49981019,0.001091951,-0.00050333794,0.0016817912,0.9972281,0.008460394,0.0028835698,0.07386624,0.9984769,0.00021564154,0.000901479,0.055163834,1
49985025,0.00066956086,0.00013425248,0.0015556794,0.997228,0.008461441,0.0028839225,0.07386834,0.9984769,0.00021564154,0.000901479,0.055163834,1
49989052,0.0001441387,0.0005500001,0.0010059191,0.99722785,0.008461381,0.002885036,0.07386934,0.9984769,0.00021564154,0.000901479,0.055163834,1
49993044,0.0016174226,0.00035366765,0.0018860833,0.99722767,0.008464295,0.002885961,0.0738721,0.9984769,0.00021564154,0.000901479,0.055163834,1
49997058,0.00025077397,0.00044431293,0.0010089432,0.9972276,0.008464459,0.0028868841,0.07387304,0.9984769,0.00021564154,0.000901479,0.055163834,1
50001080,0.00011458597,5.021901e-05,0.002610104,0.9972273,0.00846443,0.0028869717,0.07387718,0.9984769,0.00021564154,0.000901479,0.055163834,1
50005070,-0.00020331517,-0.00090833404,0.0025187752,0.997227,0.008463902,0.002885105,0.07388113,0.9984769,0.00021564154,0.000901479,0.055163834,1
50009041,0.0013924448,-0.00090928137,0.0025470057,0.9972267,0.008466543,0.0028834753,0.07388512,0.9984769,0.00021564154,0.000901479,0.055163834,1
50013084,0.0017083217,-0.0006922047,0.002760755,0.9972263,0.008469794,0.0028823195,0.07388951,0.9984769,0.00021564154,0.000901479,0.055163834,1
50017063,0.00053311465,0.0009039765,0.0028107767,0.99722594,0.008470396,0.002884205,0.07389407,0.9984769,0.00021564154,0.000901479,0.055163834,1
50021038,-0.00040716957,0.0008966252,0.002047754,0.9972258,0.008469252,0.002885894,0.07389708,0.9984769,0.00021564154,0.000901479,0.055163834,1
50025060,0.00014204718,-8.545106e-05,0.0011232027,0.99722564,0.008469274,0.002885748,0.07389823,0.9984769,0.00021564154,0.000901479,0.055163834,1
50029023,0.0005711559,0.00065328286,0.00090366876,0.9972256,0.008470024,0.0028871482,0.07389892,0.9984769,0.00021564154,0.000901479,0.055163834,1
50033036,-0.0013297114,0.00010920153,0.0002385989,0.99722564,0.008467063,0.0028871922,0.07389827,0.9984769,0.00021564154,0.000901479,0.055163834,1
50037077,-0.00071137235,0.00023502449,0.0012064255,0.99722564,0.008465351,0.0028875591,0.07389959,0.9984769,0.00021564154,0.000901479,0.055163834,1
50041050,0.00013895775,0.0023647954,0.0012858284,0.9972255,0.008465006,0.0028923007,0.07390109,0.9984769,0.00021564154,0.000901479,0.055163834,1
50045032,3.4217956e-05,0.0016189525,0.001191916,0.9972254,0.008464564,0.0028955415,0.0739024,0.9984769,0.00021564154,0.000901479,0.055163834,1
50049081,0.0013297154,0.00085217576,0.00016658491,0.99722546,0.008466831,0.0028974586,0.073901646,0.9984769,0.00021564154,0.000901479,0.055163834,1
50053050,-0.00015320256,0.00052664476,-0.0001736788,0.99722546,0.008466166,0.002898521,0.07390014,0.9984769,0.00021564154,0.000901479,0.055163834,1
50057027,0.00090829213,0.0014853938,-6.727566e-05,0.9972256,0.008467474,0.0029016507,0.07389886,0.9984769,0.00021564154,0.000901479,0.055163834,1
50061061,-0.0013309044,0.0013854794,0.00021271367,0.99722564,0.008464354,0.002904244,0.073898174,0.9984769,0.00021564154,0.000901479,0.055163834,1
50065051,-0.0004770665,-0.00032059225,5.064602e-05,0.9972258,0.0084631825,0.0029035648,0.07389714,0.9984769,0.00021564154,0.000901479,0.055163834,1
50069045,-0.00090810866,4.561385e-06,0.00035444536,0.9972259,0.008461101,0.00290347,0.07389663,0.9984769,0.00021564154,0.000901479,0.055163834,1
50073058,0.0004595318,0.00087250175,0.0012128244,0.9972257,0.008461629,0.0029052924,0.07389784,0.9984769,0.00021564154,0.000901479,0.055163834,1
50077021,0.00077048736,-7.840269e-05,0.0014508553,0.9972256,0.008462899,0.0029052661,0.07389952,0.9984769,0.00021564154,0.000901479,0.055163834,1
50081015,0.0011066359,0.00011662522,0.0006008083,0.9972256,0.008464814,0.0029056915,0.07389951,0.9984769,0.00021564154,0.000901479,0.055163834,1
50085059,0.0013054726,0.0001285245,0.0011355764,0.9972254,0.008467122,0.0029061644,0.07390048,0.9984769,0.00021564154,0.000901479,0.055163834,1
50089032,-6.80557e-05,-0.00020131253,0.0005836572,0.9972255,0.008466738,0.0029057865,0.07390037,0.9984769,0.00021564154,0.000901479,0.055163834,1
50093042,0.0011858849,-0.0010280383,0.0017958848,0.99722534,0.008468986,0.0029039257,0.07390267,0.9984769,0.00021564154,0.000901479,0.055163834,1
50097075,-0.00039284048,-0.0005151615,0.00090480497,0.9972253,0.008468014,0.002902867,0.0739032,0.9984769,0.00021564154,0.000901479,0.055163834,1
50101041,-0.0011245385,0.00010975334,0.00013211131,0.99722546,0.0084654605,0.0029029662,0.0739022,0.9984769,0.00021564154,0.000901479,0.055163834,1
50105044,-0.00050906977,0.00077315746,0.0014079487,0.9972252,0.008464044,0.0029044575,0.07390373,0.9984769,0.00021564154,0.000901479,0.055163834,1
50109102,-0.0009255186,-0.00021010695,0.00043955515,0.99722534,0.008461885,0.0029039476,0.07390336,0.9984769,0.00021564154,0.000901479,0.055163834,1
50113027,0.003905697,-0.001498878,-0.005062312,0.9972261,0.008469565,0.0029016782,0.07389206,0.9984769,0.00021564154,0.000901479,0.055163834,1
50117040,-0.0014043371,0.0006090875,0.0036288789,0.9972257,0.008466389,0.0029026761,0.07389806,0.9984769,0.00021564154,0.000901479,0.055163834,1
50121059,-0.0020462377,-0.00063779135,0.015780589,0.9972235,0.008462201,0.0029008845,0.07392829,0.9984769,0.00021564154,0.000901479,0.055163834,1
50125014,-0.0053548226,0.0037501757,0.022232447,0.9972203,0.008450781,0.0029072517,0.073971495,0.9984769,0.00021564154,0.000901479,0.055163834,1
50129027,0.0037574612,-5.563232e-05,0.018218286,0.9972177,0.00845809,0.0029074412,0.07400659,0.9984769,0.00021564154,0.000901479,0.055163834,1
50133080,-5.202298e-05,0.0009627553,0.005355371,0.997217,0.008457594,0.002909314,0.07401601,0.9984769,0.00021564154,0.000901479,0.055163834,1
50137031,0.0013194995,-0.0009790829,-0.0115091475,0.9972188,0.008459996,0.0029078072,0.07399176,0.9984769,0.00021564154,0.000901479,0.055163834,1
50141066,0.0031623584,-0.0035779728,-0.018982552,0.99722165,0.00846644,0.002901513,0.073952585,0.9984769,0.00021564154,0.000901479,0.055163834,1
50145057,0.001994105,-0.0012768052,-0.036610365,0.9972271,0.008470106,0.002899935,0.07387832,0.9984769,0.00021564154,0.000901479,0.055163834,1
50149057,0.0014802408,-0.0008187596,-0.066765115,0.997237,0.0084724985,0.0028997085,0.073743865,0.9984769,0.00021564154,0.000901479,0.055163834,1
50153028,-0.0013004814,-0.00015828013,-0.0077654817,0.9972383,0.008469576,0.002899392,0.07372711,0.9984769,0.00021564154,0.000901479,0.055163834,1
50157053,-0.023312954,-0.0032456364,0.09111394,0.99722534,0.008423798,0.0028879943,0.073907666,0.9984769,0.00021564154,0.000901479,0.055163834,1
50161044,-0.007614349,0.021003364,0.18046343,0.9971987,0.008406256,0.0029257755,0.07426674,0.9984769,0.00021564154,0.000901479,0.055163834,1
50165032,-0.015040357,0.01090882,0.124072775,0.9971806,0.008375065,0.0029432755,0.0745132,0.9984769,0.00021564154,0.000901479,0.055163834,1
50169054,0.0055993055,0.008615266,-0.047372114,0.99718755,0.00838438,0.0029621515,0.07441754,0.9984769,0.00021564154,0.000901479,0.055163834,1
50173032,0.02669797,-0.013013189,-0.20580247,0.99721783,0.008438037,0.0029436892,0.07400557,0.9984769,0.00021564154,0.000901479,0.055163834,1
50177013,0.0059951995,-0.026952269,-0.23172252,0.99725217,0.008452319,0.0028947962,0.07354166,0.9984769,0.00021564154,0.000901479,0.055163834,1
50181060,0.013076785,-0.013200942,-0.08275682,0.99726427,0.008479579,0.0028718535,0.0733751,0.9984769,0.00021564154,0.000901479,0.055163834,1
50185046,-0.019572869,0.0019390358,0.09565867,0.9972507,0.008440514,0.0028712922,0.07356483,0.9984769,0.00021564154,0.000901479,0.055163834,1
50189038,-0.030496713,0.029259056,0.19839554,0.99722177,0.008376215,0.0029218919,0.0739601,0.9984769,0.00021564154,0.000901479,0.055163834,1
50193057,-0.019303203,0.029494159,0.16796853,0.9971971,0.008334066,0.0029750972,0.07429444,0.9984769,0.00021564154,0.000901479,0.055163834,1
50197039,-0.0038656022,0.005531528,0.020796612,0.9971941,0.0083253635,0.0029852781,0.07433486,0.9984769,0.00021564154,0.000901479,0.055163834,1
50201036,0.028302118,-0.019387325,-0.13145947,0.9972134,0.008383622,0.0029530716,0.07407095,0.9984769,0.00021564154,0.000901479,0.055163834,1
50205058,0.04066851,-0.025678081,-0.17882001,0.99723935,0.0084671825,0.0029109584,0.07371258,0.9984769,0.00021564154,0.000901479,0.055163834,1
50209032,0.021552384,-0.0065283743,-0.1166484,0.99725634,0.0085101705,0.0029031588,0.07347849,0.9984769,0.00021564154,0.000901479,0.055163834,1
50213055,-0.0065116975,0.002012656,0.009867383,0.9972551,0.0084966635,0.002906118,0.073497124,0.9984769,0.00021564154,0.000901479,0.055163834,1
50217061,-0.022476941,0.010316093,0.11438728,0.99723864,0.008450696,0.0029215163,0.07372447,0.9984769,0.00021564154,0.000901479,0.055163834,1
50221016,-0.024376016,0.004502739,0.14260052,0.9972181,0.008401951,0.0029245666,0.074008,0.9984769,0.00021564154,0.000901479,0.055163834,1
50225045,-0.010248617,0.0026843585,0.07966409,0.9972064,0.0083812885,0.0029271364,0.07416593,0.9984769,0.00021564154,0.000901479,0.055163834,1
50229052,0.0026704734,0.0020171572,-0.021118179,0.99720955,0.008385908,0.0029319855,0.074122764,0.9984769,0.00021564154,0.000901479,0.055163834,1
50233046,0.0148388,-0.0027449075,-0.09288599,0.99722326,0.008415078,0.0029303462,0.07393631,0.9984769,0.00021564154,0.000901479,0.055163834,1
50237036,0.021811869,-0.011017088,-0.10196329,0.997238,0.008459317,0.002913395,0.07373164,0.9984769,0.00021564154,0.000901479,0.055163834,1
50241070,0.014723636,-0.00529708,-0.045580182,0.9972446,0.008488927,0.0029058466,0.07363951,0.9984769,0.00021564154,0.000901479,0.055163834,1
50245032,0.003853084,-0.0034376304,0.02487266,0.99724096,0.008496981,0.002899211,0.07368803,0.9984769,0.00021564154,0.000901479,0.055163834,1
50249026,-0.018850412,0.010164511,0.09669585,0.997227,0.008458176,0.0029151351,0.073880106,0.9984769,0.00021564154,0.000901479,0.055163834,1
50253061,-0.029636238,0.008336073,0.116123214,0.9972103,0.008398241,0.0029254963,0.074111,0.9984769,0.00021564154,0.000901479,0.055163834,1
50257034,-0.013155348,0.0026724543,0.05763915,0.9972021,0.008371661,0.0029279897,0.07422505,0.9984769,0.00021564154,0.000901479,0.055163834,1
50261046,0.016284402,-0.0059615243,-0.07270138,0.99721277,0.008404358,0.002919805,0.07407869,0.9984769,0.00021564154,0.000901479,0.055163834,1
50265057,0.030606179,-0.011067365,-0.14618546,0.99723405,0.008465893,0.0029048084,0.07378592,0.9984769,0.00021564154,0.000901479,0.055163834,1
50269040,0.006084485,-0.0068308474,-0.07945186,0.99724567,0.008478287,0.002893517,0.07362645,0.9984769,0.00021564154,0.000901479,0.055163834,1
50273022,-0.01703894,-0.0057352404,0.026567925,0.9972421,0.00844501,0.002879202,0.07367846,0.9984769,0.00021564154,0.000901479,0.055163834,1
50277062,0.0012590243,0.007252498,0.079435244,0.9972305,0.008446647,0.0028925894,0.07383609,0.9984769,0.00021564154,0.000901479,0.055163834,1
50281059,-0.0030779724,0.01693816,0.14240459,0.9972094,0.008438559,0.0029235987,0.074119546,0.9984769,0.00021564154,0.000901479,0.055163834,1
50285034,-0.0285107,0.006435159,0.112276904,0.9971933,0.008381133,0.0029303937,0.07434276,0.9984769,0.00021564154,0.000901479,0.055163834,1
50289055,-0.00074606715,-0.011516117,-0.085797586,0.99720615,0.008380578,0.0029088303,0.074170485,0.9984769,0.00021564154,0.000901479,0.055163834,1
50293044,0.033933554,-0.017453467,-0.18240984,0.99723274,0.008449498,0.0028822,0.073805384,0.9984769,0.00021564154,0.000901479,0.055163834,1
50297022,0.014926149,-0.007861282,-0.15602176,0.9972556,0.008479253,0.0028714421,0.073493004,0.9984769,0.00021564154,0.000901479,0.055163834,1
50301053,0.0047393832,-0.016360294,-0.081570186,0.9972677,0.008490372,0.0028409816,0.07332916,0.9984769,0.00021564154,0.000901479,0.055163834,1
50305036,-0.019090228,-0.0065723197,0.12169481,0.99725014,0.008453672,0.002823091,0.07357098,0.9984769,0.00021564154,0.000901479,0.055163834,1
50309055,-0.050019868,0.024048112,0.2880033,0.9972085,0.008351706,0.002858916,0.07414537,0.9984769,0.00021564154,0.000901479,0.055163834,1
50313059,-0.0013999261,0.023139821,0.19064248,0.99718,0.008346306,0.0029017664,0.07452521,0.9984769,0.00021564154,0.000901479,0.055163834,1
50317038,0.021382801,-0.0063416,0.044397194,0.99717313,0.008389883,0.0028916525,0.074612595,0.9984769,0.00021564154,0.000901479,0.055163834,1
50321022,0.017081236,-0.0078268135,-0.18058746,0.99719983,0.0084237885,0.002881713,0.07425137,0.9984769,0.00021564154,0.000901479,0.055163834,1
50325049,0.020804139,-0.030950628,-0.2972517,0.9972437,0.008467896,0.0028281792,0.07365713,0.9984769,0.00021564154,0.000901479,0.055163834,1
50329041,0.023329617,-0.038638696,-0.21955511,0.9972758,0.008518627,0.002758338,0.07321743,0.9984769,0.00021564154,0.000901479,0.055163834,1
50333049,-0.02117322,0.010465262,-0.008803982,0.9972775,0.008474569,0.0027763457,0.07319924,0.9984769,0.00021564154,0.000901479,0.055163834,1
50337041,-0.06882623,0.027128182,0.23349857,0.9972443,0.008334353,0.0028165106,0.07366487,0.9984769,0.00021564154,0.000901479,0.055163834,1
50341065,0.001541531,0.023526834,0.31437373,0.99719757,0.008335476,0.0028585617,0.07429212,0.9984769,0.00021564154,0.000901479,0.055163834,1
50345028,-0.013332522,0.035188947,0.20228153,0.99716765,0.008304599,0.0029233955,0.074694805,0.9984769,0.00021564154,0.000901479,0.055163834,1
50349067,0.01281908,0.012821759,-0.023400437,0.9971709,0.008327867,0.0029513645,0.07464736,0.9984769,0.00021564154,0.000901479,0.055163834,1
50353065,0.028779486,-0.038205568,-0.27394786,0.9972117,0.00838951,0.002883607,0.074095026,0.9984769,0.00021564154,0.000901479,0.055163834,1
50357032,-0.008339723,-0.026149215,-0.29678982,0.9972556,0.00837496,0.0028356612,0.07350657,0.9984769,0.00021564154,0.000901479,0.055163834,1
50361075,0.029881319,-0.031964093,-0.19988023,0.9972846,0.008437896,0.002779721,0.073106214,0.9984769,0.00021564154,0.000901479,0.055163834,1
50365028,-0.00024385354,-0.00082740316,0.07487992,0.9972738,0.008437683,0.0027768612,0.07325463,0.9984769,0.00021564154,0.000901479,0.055163834,1
50369010,-0.06801638,0.035662226,0.32928044,0.99722624,0.008298352,0.0028325594,0.07391142,0.9984769,0.00021564154,0.000901479,0.055163834,1
50373060,-0.0059631597,0.013755465,0.30522892,0.99718106,0.008285914,0.0028541298,0.074519545,0.9984769,0.00021564154,0.000901479,0.055163834,1
50377825,-0.001641961,0.01827297,0.15241133,0.99715376,0.008278236,0.0028948814,0.07488341,0.9984769,0.00021564154,0.000901479,0.055163834,1
50381844,0.02510706,0.0032540327,-0.14349023,0.99717486,0.008326979,0.0029075367,0.07459627,0.9984769,0.00021564154,0.000901479,0.055163834,1
50385860,0.059032537,-0.030617958,-0.3311577,0.9972233,0.008447327,0.0028608236,0.07393391,0.9984769,0.00021564154,0.000901479,0.055163834,1
50389894,-0.0020379333,-0.026154554,-0.28681946,0.9972658,0.008445418,0.0028132582,0.07336072,0.9984769,0.00021564154,0.000901479,0.055163834,1
50393828,-0.013299628,-0.010121405,-0.12038199,0.9972837,0.008419566,0.002793209,0.07311965,0.9984769,0.00021564154,0.000901479,0.055163834,1
50397865,-0.019821623,-0.0044375253,0.16888703,0.9972594,0.008381482,0.0027786717,0.07345559,0.9984769,0.00021564154,0.000901479,0.055163834,1
50401844,-0.05571157,0.023837244,0.3608146,0.99720705,0.008268666,0.0028120533,0.074175164,0.9984769,0.00021564154,0.000901479,0.055163834,1
50405836,0.0030563287,0.03347123,0.30136874,0.997162,0.0082713105,0.0028743416,0.07477582,0.9984769,0.00021564154,0.000901479,0.055163834,1
50409927,0.016616117,-0.0052040196,0.08971447,0.99714833,0.008305587,0.0028650225,0.074953645,0.9984769,0.00021564154,0.000901479,0.055163834,1
50413845,0.026141185,-0.017998248,-0.20451298,0.9971787,0.008359018,0.0028365173,0.074544534,0.9984769,0.00021564154,0.000901479,0.055163834,1
50417833,0.014348146,-0.023788089,-0.3218881,0.9972265,0.008389131,0.0027966546,0.07390102,0.9984769,0.00021564154,0.000901479,0.055163834,1
50421843,0.021292455,-0.0283188,-0.27256438,0.99726635,0.008434029,0.002747972,0.07335605,0.9984769,0.00021564154,0.000901479,0.055163834,1
50425817,0.025505805,-0.0059003225,-0.064486034,0.99727553,0.008485179,0.0027411035,0.07322631,0.9984769,0.00021564154,0.000901479,0.055163834,1
50429891,-0.058157634,0.015925953,0.21738097,0.9972446,0.008367832,0.0027607197,0.07365951,0.9984769,0.00021564154,0.000901479,0.055163834,1
50433849,-0.028394045,0.005113,0.3033707,0.99720013,0.0083118705,0.0027617202,0.074264,0.9984769,0.00021564154,0.000901479,0.055163834,1
50437833,0.0018077474,0.030544436,0.23646413,0.9971649,0.008312013,0.0028190226,0.074735045,0.9984769,0.00021564154,0.000901479,0.055163834,1
50441839,-0.008258704,0.01856851,0.022744881,0.99716157,0.008292655,0.0028545125,0.07477984,0.9984769,0.00021564154,0.000901479,0.055163834,1
50445843,0.04634314,-0.01431911,-0.28533754,0.9972034,0.008385324,0.0028376759,0.07420952,0.9984769,0.00021564154,0.000901479,0.055163834,1
50449874,0.008239739,-0.041978363,-0.34837312,0.9972551,0.008405776,0.0027610697,0.07351306,0.9984769,0.00021564154,0.000901479,0.055163834,1
50453843,-0.0105023235,-0.037369218,-0.20917486,0.99728614,0.008388924,0.0026885618,0.073094405,0.9984769,0.00021564154,0.000901479,0.055163834,1
50457849,0.0074067283,-0.011854301,0.040318303,0.99728024,0.008405408,0.0026653765,0.07317371,0.9984769,0.00021564154,0.000901479,0.055163834,1
50461839,-0.037776925,0.021467943,0.32908618,0.99723244,0.008328413,0.0026971938,0.07382995,0.9984769,0.00021564154,0.000901479,0.055163834,1
50465854,-0.013595759,0.057547953,0.36995506,0.99717754,0.008294561,0.0028038507,0.074567966,0.9984769,0.00021564154,0.000901479,0.055163834,1
50469888,-0.0056129736,0.02431051,0.2109538,0.997146,0.008280702,0.002848024,0.0749881,0.9984769,0.00021564154,0.000901479,0.055163834,1
50473818,0.028645493,-0.0048497804,-0.09687521,0.99716014,0.00833776,0.0028442964,0.0747937,0.9984769,0.00021564154,0.000901479,0.055163834,1
50477828,0.008903527,-0.032438535,-0.34458068,0.9972115,0.008358158,0.0027867495,0.07410534,0.9984769,0.00021564154,0.000901479,0.055163834,1
50481844,0.028574299,-0.04523781,-0.35570088,0.99726385,0.008419646,0.0027067263,0.073393926,0.9984769,0.00021564154,0.000901479,0.055163834,1
50485837,0.0072513213,-0.02481371,-0.18863507,0.99729156,0.008436472,0.002661518,0.07301643,0.9984769,0.00021564154,0.000901479,0.055163834,1
50489864,-0.050071742,0.021321425,0.12749295,0.9972737,0.008333921,0.0026946114,0.07327045,0.9984769,0.00021564154,0.000901479,0.055163834,1
50493860,-0.006875015,0.025099771,0.30289176,0.99722916,0.008317912,0.0027386681,0.07387445,0.9984769,0.00021564154,0.000901479,0.055163834,1
50497850,-0.026420206,0.046052568,0.3595251,0.99717593,0.00826012,0.0028206822,0.0745917,0.9984769,0.00021564154,0.000901479,0.055163834,1
50501832,0.0047955383,0.029562002,0.17157798,0.99715024,0.008265997,0.0028775327,0.07493341,0.9984769,0.00021564154,0.000901479,0.055163834,1
50505875,0.03676939,-0.016630704,-0.1401318,0.99717075,0.008340785,0.0028522161,0.074652605,0.9984769,0.00021564154,0.000901479,0.055163834,1
50509895,0.030896664,-0.040352866,-0.31922153,0.99721783,0.008406383,0.0027816722,0.07401411,0.9984769,0.00021564154,0.000901479,0.055163834,1
50513824,0.008387643,-0.039144218,-0.32379273,0.9972658,0.008426836,0.0027103075,0.07336678,0.9984769,0.00021564154,0.000901479,0.055163834,1
50517835,-0.027499152,-0.017349372,-0.14695534,0.99728787,0.008373498,0.002674171,0.07307279,0.9984769,0.00021564154,0.000901479,0.055163834,1
50521829,0.0013468945,0.017815268,0.13861893,0.9972676,0.008374068,0.0027075983,0.07334877,0.9984769,0.00021564154,0.000901479,0.055163834,1
50525835,-0.060847525,0.022837173,0.37413344,0.99721336,0.008251117,0.0027379596,0.07409481,0.9984769,0.00021564154,0.000901479,0.055163834,1
50529906,0.012835296,0.050045516,0.33090115,0.9971637,0.008270877,0.0028342113,0.074754655,0.9984769,0.00021564154,0.000901479,0.055163834,1
50533830,0.032415915,-0.007941476,0.12827589,0.99714404,0.008337177,0.0028211004,0.0750093,0.9984769,0.00021564154,0.000901479,0.055163834,1
50537829,0.024526367,0.006546344,-0.22157092,0.99717677,0.008383595,0.0028415322,0.074566536,0.9984769,0.00021564154,0.000901479,0.055163834,1
50541861,0.027223265,-0.038740966,-0.40363675,0.99723655,0.008441107,0.0027750852,0.07375992,0.9984769,0.00021564154,0.000901479,0.055163834,1
50545816,-0.019351846,-0.033344746,-0.34191886,0.9972872,0.008405258,0.0027115059,0.07307687,0.9984769,0.00021564154,0.000901479,0.055163834,1
50549886,-0.005493317,0.010122809,-0.09327355,0.997301,0.008392053,0.0027324553,0.07289021,0.9984769,0.00021564154,0.000901479,0.055163834,1
50553850,-0.03660556,0.0032380938,0.24737073,0.99726546,0.008319631,0.0027294154,0.073383205,0.9984769,0.00021564154,0.000901479,0.055163834,1
50557859,0.0058604935,0.052254535,0.39830473,0.9972063,0.008325542,0.0028278232,0.074177414,0.9984769,0.00021564154,0.000901479,0.055163834,1
50561860,-0.03365352,0.017444594,0.37592348,0.99715066,0.008257509,0.0028513966,0.07492848,0.9984769,0.00021564154,0.000901479,0.055163834,1
50565829,0.03498198,0.0111497,0.025080351,0.9971463,0.008325305,0.002878367,0.07497754,0.9984769,0.00021564154,0.000901479,0.055163834,1
50569853,0.036575586,-0.030229405,-0.25681508,0.99718434,0.008401022,0.0028278173,0.07446384,0.9984769,0.00021564154,0.000901479,0.055163834,1
50573834,-0.01009511,-0.034910385,-0.4132298,0.99724597,0.008383438,0.0027635852,0.073638156,0.9984769,0.00021564154,0.000901479,0.055163834,1
50577841,0.02655453,-0.025203543,-0.29741105,0.99728936,0.008438155,0.0027221926,0.07304375,0.9984769,0.00021564154,0.000901479,0.055163834,1
50581839,-0.027504632,0.004929018,0.017165586,0.9972874,0.008382372,0.0027276843,0.073077455,0.9984769,0.00021564154,0.000901479,0.055163834,1
50585837,-0.011851566,0.0113512715,0.30176127,0.9972433,0.008358422,0.0027435014,0.073678814,0.9984769,0.00021564154,0.000901479,0.055163834,1
50589921,-0.011530461,0.049463,0.41794136,0.99718124,0.008330134,0.00283346,0.07451287,0.9984769,0.00021564154,0.000901479,0.055163834,1
50593835,-0.016870545,0.027678957,0.2626139,0.99714226,0.0082935365,0.0028817272,0.07503636,0.9984769,0.00021564154,0.000901479,0.055163834,1
50597830,0.013895052,-0.008530398,-0.05286286,0.99714994,0.008321908,0.0028676323,0.074929945,0.9984769,0.00021564154,0.000901479,0.055163834,1
50601869,0.05342591,-0.028670598,-0.35235703,0.99720186,0.008430413,0.0028242837,0.07422583,0.9984769,0.00021564154,0.000901479,0.055163834,1
50605844,-0.017723376,-0.058414884,-0.42962503,0.997266,0.008400975,0.0027123054,0.07336714,0.9984769,0.00021564154,0.000901479,0.055163834,1
50609876,-0.007102796,-0.012819555,-0.24330607,0.9973018,0.008387052,0.0026897145,0.072880834,0.9984769,0.00021564154,0.000901479,0.055163834,1
50613842,-0.024382561,0.011101013,0.08518719,0.9972897,0.008336953,0.002706809,0.07305032,0.9984769,0.00021564154,0.000901479,0.055163834,1
50617820,-0.017545352,0.026115622,0.3630692,0.99723667,0.008299777,0.0027502223,0.07377431,0.9984769,0.00021564154,0.000901479,0.055163834,1
50621828,0.0063615525,0.05439192,0.4078822,0.99717575,0.008306348,0.0028527982,0.07458792,0.9984769,0.00021564154,0.000901479,0.055163834,1
50625863,-0.0076317275,0.010621645,0.23988038,0.99714,0.008290593,0.0028687797,0.07506581,0.9984769,0.00021564154,0.000901479,0.055163834,1
50629897,0.037368342,-0.009682611,-0.11996313,0.99715745,0.00836558,0.002856987,0.07482547,0.9984769,0.00021564154,0.000901479,0.055163834,1
50633823,0.0057533216,-0.053313226,-0.32954177,0.99720687,0.008382814,0.002756963,0.07416661,0.9984769,0.00021564154,0.000901479,0.055163834,1
50637867,0.016253762,-0.027719157,-0.42088887,0.99726886,0.008416691,0.0027110549,0.07332594,0.9984769,0.00021564154,0.000901479,0.055163834,1
50641853,-0.014867622,-0.010164658,-0.16078408,0.9972927,0.008387319,0.0026912182,0.073004484,0.9984769,0.00021564154,0.000901479,0.055163834,1
50645833,-0.034727532,0.014967294,0.155298,0.9972705,0.008316365,0.0027133075,0.07331402,0.9984769,0.00021564154,0.000901479,0.055163834,1
50649924,-0.01611701,0.028213982,0.37220064,0.9972159,0.0082818,0.0027609307,0.07405629,0.9984769,0.00021564154,0.000901479,0.055163834,1
50653837,-0.011380843,0.03234838,0.38164246,0.9971592,0.008256088,0.002817334,0.07481721,0.9984769,0.00021564154,0.000901479,0.055163834,1
50657852,0.009829552,0.0031286185,0.11753428,0.99714136,0.008275564,0.0028230145,0.07505109,0.9984769,0.00021564154,0.000901479,0.055163834,1
50661849,0.053571112,-0.01869367,-0.18567061,0.9971684,0.008383819,0.0027967442,0.07467955,0.9984769,0.00021564154,0.000901479,0.055163834,1
50665815,0.0038319028,-0.03903881,-0.42313784,0.9972315,0.008394572,0.0027264534,0.073834315,0.9984769,0.00021564154,0.000901479,0.055163834,1
50669886,-0.011641249,-0.019474134,-0.35048655,0.99728334,0.008372019,0.002691687,0.073134735,0.9984769,0.00021564154,0.000901479,0.055163834,1
50673856,-0.00025399053,0.017641874,-0.11141523,0.99729955,0.008368005,0.0027286,0.07291218,0.9984769,0.00021564154,0.000901479,0.055163834,1
50677830,-0.05048884,-0.0025991835,0.23819274,0.9972657,0.008268599,0.002711947,0.073387004,0.9984769,0.00021564154,0.000901479,0.055163834,1
50681821,0.018995712,0.054422967,0.38977388,0.9972075,0.00830025,0.0028166948,0.074164376,0.9984769,0.00021564154,0.000901479,0.055163834,1
50685857,-0.014466814,-0.00047795102,0.37327573,0.99715227,0.008273239,0.0028072777,0.07490831,0.9984769,0.00021564154,0.000901479,0.055163834,1
50689875,0.018736681,0.019326078,0.07727719,0.99714017,0.008307827,0.002847236,0.075062074,0.9984769,0.00021564154,0.000901479,0.055163834,1
50693837,0.034205858,-0.02182254,-0.23155671,0.99717444,0.008377629,0.0028125737,0.07459924,0.9984769,0.00021564154,0.000901479,0.055163834,1
50697864,-0.022365922,-0.040711038,-0.4042332,0.9972352,0.008336468,0.0027346632,0.07379169,0.9984769,0.00021564154,0.000901479,0.055163834,1
50701826,0.0307879,-0.0060318336,-0.30178887,0.997279,0.008396744,0.0027320774,0.07318907,0.9984769,0.00021564154,0.000901479,0.055163834,1
50705821,-0.034051437,-0.01726877,0.008562785,0.9972785,0.008331048,0.0026923756,0.07320547,0.9984769,0.00021564154,0.000901479,0.055163834,1
50709936,-0.0044680145,0.026083041,0.24191552,0.99724287,0.008319271,0.0027396462,0.073688716,0.9984769,0.00021564154,0.000901479,0.055163834,1
50713814,-0.007857241,0.017481338,0.37931287,0.9971869,0.008302764,0.002766857,0.07444386,0.9984769,0.00021564154,0.000901479,0.055163834,1
50717847,-0.01555565,0.031177301,0.2252642,0.99715334,0.008268,0.002822833,0.07489317,0.9984769,0.00021564154,0.000901479,0.055163834,1
50721869,0.028333772,-0.000795118,-0.033281498,0.9971579,0.0083241,0.0028258928,0.07482608,0.9984769,0.00021564154,0.000901479,0.055163834,1
50725854,0.021321688,-0.017351914,-0.31941476,0.9972053,0.008367051,0.0027996348,0.07418813,0.9984769,0.00021564154,0.000901479,0.055163834,1
50729878,0.009946454,-0.04433681,-0.39033732,0.997263,0.00839093,0.0027190538,0.073408306,0.9984769,0.00021564154,0.000901479,0.055163834,1
50733850,-0.0026533916,-0.017691832,-0.18988313,0.997291,0.008386846,0.0026864056,0.073028795,0.9984769,0.00021564154,0.000901479,0.055163834,1
50737828,-0.028834304,-0.006986747,0.09555819,0.99727756,0.008330518,0.002666504,0.07321888,0.9984769,0.00021564154,0.000901479,0.055163834,1
50741829,-0.03149868,0.036229674,0.36634034,0.997224,0.008263957,0.0027278971,0.073949926,0.9984769,0.00021564154,0.000901479,0.055163834,1
50745858,0.0030536188,0.055428788,0.3717817,0.99716836,0.008263525,0.0028325825,0.07469173,0.9984769,0.00021564154,0.000901479,0.055163834,1
50749904,0.0066379784,0.008357091,0.18120232,0.99714124,0.008276217,0.0028470708,0.075052656,0.9984769,0.00021564154,0.000901479,0.055163834,1
50753832,0.044393312,-0.002729854,-0.15492547,0.9971638,0.008363899,0.0028506846,0.0747429,0.9984769,0.00021564154,0.000901479,0.055163834,1
50757842,-0.00970907,-0.059609193,-0.3731083,0.9972197,0.008350951,0.00273641,0.073997304,0.9984769,0.00021564154,0.000901479,0.055163834,1
50761830,0.014882806,-0.018667063,-0.34630188,0.99727064,0.008381129,0.0027069834,0.07330568,0.9984769,0.00021564154,0.000901479,0.055163834,1
50765835,-0.012549955,-0.0014069633,-0.09057675,0.9972842,0.008355448,0.0027036746,0.073124506,0.9984769,0.00021564154,0.000901479,0.055163834,1
50769916,-0.042146012,0.015177288,0.19212398,0.9972567,0.008269901,0.0027243788,0.07350759,0.9984769,0.00021564154,0.000901479,0.055163834,1
50773854,0.030738952,0.035797976,0.34852123,0.9972045,0.008327497,0.0027943554,0.07420272,0.9984769,0.00021564154,0.000901479,0.055163834,1
50777836,-0.042987343,0.010293127,0.317427,0.9971579,0.008241619,0.002803027,0.07483577,0.9984769,0.00021564154,0.000901479,0.055163834,1
50781853,0.04197657,0.03093598,0.041246586,0.99715096,0.00832057,0.0028701148,0.07491774,0.9984769,0.00021564154,0.000901479,0.055163834,1
50785829,0.015259566,-0.034850165,-0.23797093,0.9971865,0.008354493,0.0028066828,0.07444204,0.9984769,0.00021564154,0.000901479,0.055163834,1
50789884,0.0064890906,-0.02576945,-0.38767695,0.99724394,0.00836875,0.0027625156,0.07366768,0.9984769,0.00021564154,0.000901479,0.055163834,1
50793849,0.018346835,-0.02914811,-0.2557324,0.99728143,0.008407862,0.0027111617,0.07315653,0.9984769,0.00021564154,0.000901479,0.055163834,1
50797829,-0.030177321,-0.010797858,0.028924974,0.99727774,0.008349048,0.0026845252,0.073213704,0.9984769,0.00021564154,0.000901479,0.055163834,1
50801829,-0.022534464,0.023372877,0.28073046,0.99723685,0.008301827,0.002722958,0.07377365,0.9984769,0.00021564154,0.000901479,0.055163834,1
50805852,-0.024625253,0.040677562,0.38862288,0.9971793,0.008248477,0.002793792,0.07454895,0.9984769,0.00021564154,0.000901479,0.055163834,1
50809861,0.014825458,0.040379737,0.21460049,0.9971469,0.008272881,0.0028727837,0.07497695,0.9984769,0.00021564154,0.000901479,0.055163834,1
50813841,0.025454316,-0.026396496,-0.06236308,0.99715596,0.008326888,0.0028247936,0.07485146,0.9984769,0.00021564154,0.000901479,0.055163834,1
50817866,0.030871961,-0.033296477,-0.3236561,0.9972039,0.008391292,0.0027681775,0.07420452,0.9984769,0.00021564154,0.000901479,0.055163834,1
50821840,-0.010337506,-0.060625736,-0.37526864,0.99725986,0.008377238,0.0026518123,0.07345455,0.9984769,0.00021564154,0.000901479,0.055163834,1
50825837,0.002378821,-0.0017006046,-0.16211893,0.9972837,0.008381018,0.0026512714,0.07313053,0.9984769,0.00021564154,0.000901479,0.055163834,1
50829899,-0.037737034,0.011204728,0.11101682,0.9972681,0.008304401,0.0026660177,0.07335177,0.9984769,0.00021564154,0.000901479,0.055163834,1
50833826,-0.019884206,0.0373494,0.3395924,0.99721813,0.008260719,0.0027317435,0.07402927,0.9984769,0.00021564154,0.000901479,0.055163834,1
50837837,0.011726921,0.02970326,0.3521468,0.99716544,0.008281289,0.0027866792,0.074731424,0.9984769,0.00021564154,0.000901479,0.055163834,1
50842643,0.0014533338,-0.00033255306,0.10955383,0.9971458,0.008283946,0.0027840103,0.07499277,0.9984769,0.00021564154,0.000901479,0.055163834,1
50846654,0.05769453,-0.016095873,-0.23085801,0.99717957,0.008400025,0.0027641081,0.07453136,0.9984769,0.00021564154,0.000901479,0.055163834,1
50850626,-0.03473323,-0.036949534,-0.37883502,0.99723655,0.008334019,0.002691332,0.07377483,0.9984769,0.00021564154,0.000901479,0.055163834,1
50854661,0.016686743,-0.01029155,-0.30652294,0.9972814,0.008366992,0.0026781075,0.073162824,0.9984769,0.00021564154,0.000901479,0.055163834,1
50858634,-0.016513977,-0.01777862,-0.04262839,0.99728805,0.008336204,0.002640673,0.07307702,0.9984769,0.00021564154,0.000901479,0.055163834,1
50862610,-0.02195031,0.015195819,0.23850195,0.99725324,0.008291144,0.002663585,0.073553264,0.9984769,0.00021564154,0.000901479,0.055163834,1
50866654,0.003670117,0.026242565,0.4126111,0.99719226,0.008296566,0.0027093021,0.07437485,0.9984769,0.00021564154,0.000901479,0.055163834,1
50870637,-0.019144386,0.038714763,0.33419868,0.99714243,0.008254196,0.0027778614,0.075041406,0.9984769,0.00021564154,0.000901479,0.055163834,1
50874636,0.022988651,0.0071027577,0.061173856,0.9971328,0.00829905,0.0027942278,0.07516286,0.9984769,0.00021564154,0.000901479,0.055163834,1
50878659,0.030510982,-0.016207274,-0.25712758,0.997171,0.008360631,0.002770512,0.07464909,0.9984769,0.00021564154,0.000901479,0.055163834,1
50882637,0.006648468,-0.03994769,-0.44252756,0.9972369,0.008377116,0.0026989898,0.07376526,0.9984769,0.00021564154,0.000901479,0.055163834,1
50886633,0.0020211511,-0.034539267,-0.30548367,0.99728185,0.00838431,0.0026352804,0.073154844,0.9984769,0.00021564154,0.000901479,0.055163834,1
50890656,-0.02642636,0.0027715503,-0.047121447,0.9972893,0.008330654,0.0026374953,0.0730605,0.9984769,0.00021564154,0.000901479,0.055163834,1
50894630,-0.03390686,0.0060880417,0.27359352,0.9972497,0.008263305,0.0026398816,0.07360574,0.9984769,0.00021564154,0.000901479,0.055163834,1
50898620,0.020315735,0.045330305,0.40434006,0.9971894,0.008298986,0.0027263595,0.07441223,0.9984769,0.00021564154,0.000901479,0.055163834,1
50902656,-0.031593136,0.02159603,0.3293072,0.9971406,0.008234283,0.002759021,0.07506893,0.9984769,0.00021564154,0.000901479,0.055163834,1
50906644,0.037038926,0.020547042,0.048506554,0.99713254,0.008305049,0.0028045205,0.07516521,0.9984769,0.00021564154,0.000901479,0.055163834,1
50910627,0.0079537155,-0.024072345,-0.29258192,0.9971765,0.008322602,0.002762302,0.07458037,0.9984769,0.00021564154,0.000901479,0.055163834,1
50914638,0.009054842,-0.044281017,-0.3819472,0.99723333,0.008344863,0.00268147,0.0738174,0.9984769,0.00021564154,0.000901479,0.055163834,1
50918635,0.030232165,-0.018488795,-0.3175003,0.9972796,0.00840589,0.0026541213,0.07318322,0.9984769,0.00021564154,0.000901479,0.055163834,1
50922626,-0.046114977,-0.022389116,-0.018229974,0.99728316,0.008316831,0.0026027937,0.07314614,0.9984769,0.00021564154,0.000901479,0.055163834,1
50926647,-0.0034644885,0.03513311,0.28495926,0.9972413,0.008305983,0.0026673868,0.07371462,0.9984769,0.00021564154,0.000901479,0.055163834,1
50930633,-0.037642036,0.03249151,0.40427253,0.9971818,0.008227987,0.0027196738,0.07452101,0.9984769,0.00021564154,0.000901479,0.055163834,1
50934626,0.017755616,0.031288814,0.2988641,0.9971367,0.008260085,0.0027795567,0.07511684,0.9984769,0.00021564154,0.000901479,0.055163834,1
50938662,0.019184085,0.012968515,0.03139103,0.9971316,0.008296309,0.002807533,0.07517893,0.9984769,0.00021564154,0.000901479,0.055163834,1
50942650,0.028036118,-0.019995892,-0.29244044,0.9971751,0.008353322,0.002776455,0.07459444,0.9984769,0.00021564154,0.000901479,0.055163834,1
50946624,0.041182272,-0.04093824,-0.42187965,0.9972373,0.008438931,0.002707743,0.07375148,0.9984769,0.00021564154,0.000901479,0.055163834,1
50950662,-0.039201647,-0.01907156,-0.3037186,0.9972828,0.008361629,0.0026687842,0.07314482,0.9984769,0.00021564154,0.000901479,0.055163834,1
50954626,-0.00858321,-0.021828508,-0.010738534,0.99728453,0.00834738,0.0026239392,0.07312246,0.9984769,0.00021564154,0.000901479,0.055163834,1
50958608,-0.034333203,0.012035456,0.31592846,0.9972388,0.008278498,0.0026373938,0.07375244,0.9984769,0.00021564154,0.000901479,0.055163834,1
50962632,-0.02269951,0.053835247,0.38994148,0.9971811,0.008227071,0.0027346998,0.074530475,0.9984769,0.00021564154,0.000901479,0.055163834,1
50966645,0.026779806,0.021902693,0.3136993,0.9971337,0.008278675,0.0027769515,0.07515563,0.9984769,0.00021564154,0.000901479,0.055163834,1
50970629,0.0020361226,0.022325756,-0.027696656,0.9971377,0.008278968,0.0028219696,0.0751001,0.9984769,0.00021564154,0.000901479,0.055163834,1
50974680,0.034556158,-0.043305766,-0.29884183,0.99718213,0.008352472,0.0027454551,0.074502386,0.9984769,0.00021564154,0.000901479,0.055163834,1
50978643,0.001917283,-0.032160047,-0.39140654,0.99724036,0.008358676,0.0026878873,0.07372073,0.9984769,0.00021564154,0.000901479,0.055163834,1
50982623,0.0014371646,-0.007907991,-0.2681748,0.99727976,0.008361004,0.0026765508,0.07318504,0.9984769,0.00021564154,0.000901479,0.055163834,1
50986647,-0.009160895,-0.036950376,0.055983916,0.99727196,0.008348191,0.002600313,0.073295474,0.9984769,0.00021564154,0.000901479,0.055163834,1
50990645,-0.024716262,0.041867983,0.3072071,0.99722695,0.0082940925,0.0026748194,0.07390841,0.9984769,0.00021564154,0.000901479,0.055163834,1
50994629,-0.03422217,0.011883885,0.39062023,0.9971695,0.008225919,0.0026867164,0.07468708,0.9984769,0.00021564154,0.000901479,0.055163834,1
50998673,0.022362191,0.032430843,0.24054702,0.99713296,0.008266742,0.0027505122,0.075166464,0.9984769,0.00021564154,0.000901479,0.055163834,1
51002645,0.01960499,0.023259396,-0.085867964,0.9971454,0.008301635,0.002801002,0.074994735,0.9984769,0.00021564154,0.000901479,0.055163834,1
51006617,0.025821771,-0.03527624,-0.31578884,0.99719244,0.0083564,0.002739502,0.074363515,0.9984769,0.00021564154,0.000901479,0.055163834,1
51010659,0.025341969,-0.028335305,-0.39311972,0.99725044,0.008408766,0.0026930603,0.073578134,0.9984769,0.00021564154,0.000901479,0.055163834,1
51014633,-0.03173307,-0.044400796,-0.2001855,0.99728054,0.008350696,0.0026029625,0.07317767,0.9984769,0.00021564154,0.000901479,0.055163834,1
51018631,-0.010699484,-0.015999267,0.08709143,0.9972682,0.008331903,0.0025677618,0.07335053,0.9984769,0.00021564154,0.000901479,0.055163834,1
51022665,-0.038921494,0.02703647,0.3562418,0.99721617,0.008251883,0.002609781,0.07406111,0.9984769,0.00021564154,0.000901479,0.055163834,1
51026639,-0.0067727575,0.041054994,0.38583833,0.99715877,0.008234072,0.0026840048,0.07483039,0.9984769,0.00021564154,0.000901479,0.055163834,1
51030636,0.04376785,0.029960519,0.22343902,0.99712425,0.008317818,0.0027463487,0.07527539,0.9984769,0.00021564154,0.000901479,0.055163834,1
51034638,0.025120348,0.009148493,-0.12580636,0.99714285,0.00836563,0.0027702195,0.07502365,0.9984769,0.00021564154,0.000901479,0.055163834,1
51038634,0.017966878,-0.04039224,-0.3690736,0.9971979,0.008405224,0.0026982904,0.07428631,0.9984769,0.00021564154,0.000901479,0.055163834,1
51042641,0.0047336365,-0.035719752,-0.390716,0.99725586,0.00841762,0.0026340585,0.07350573,0.9984769,0.00021564154,0.000901479,0.055163834,1
51046658,-0.014944309,-0.041408718,-0.210382,0.9972872,0.008392566,0.0025525542,0.07308482,0.9984769,0.00021564154,0.000901479,0.055163834,1
51050621,-0.040095955,0.004411588,0.1644055,0.99726385,0.008312542,0.0025524774,0.07341233,0.9984769,0.00021564154,0.000901479,0.055163834,1
51054618,-0.027531726,0.034581937,0.34514156,0.9972132,0.008254065,0.0026114252,0.07410063,0.9984769,0.00021564154,0.000901479,0.055163834,1
51058642,0.007234732,0.03768086,0.40449342,0.9971527,0.0082648005,0.0026806719,0.074906565,0.9984769,0.00021564154,0.000901479,0.055163834,1
51062628,0.03192993,0.074232385,0.15966952,0.99712795,0.00831801,0.002830639,0.07522519,0.9984769,0.00021564154,0.000901479,0.055163834,1
51066645,-0.010391549,-0.03770232,-0.12733974,0.99714744,0.008302026,0.0027557467,0.074969724,0.9984769,0.00021564154,0.000901479,0.055163834,1
51070645,0.031376835,-0.021323921,-0.34607768,0.99719876,0.008365663,0.002723423,0.07427826,0.9984769,0.00021564154,0.000901479,0.055163834,1
51074624,0.00420569,-0.06818028,-0.3966713,0.99725777,0.008381798,0.0025943888,0.073484644,0.9984769,0.00021564154,0.000901479,0.055163834,1
51078632,-0.010111621,-0.030736316,-0.21874502,0.9972902,0.008364814,0.0025350463,0.0730472,0.9984769,0.00021564154,0.000901479,0.055163834,1
51082642,-0.016993895,0.020489046,0.12850736,0.9972716,0.008328359,0.0025710415,0.07330311,0.9984769,0.00021564154,0.000901479,0.055163834,1
51086633,-0.06974522,0.0029199398,0.37768352,0.9972172,0.008190558,0.0025601054,0.07405592,0.9984769,0.00021564154,0.000901479,0.055163834,1
51090632,0.072425894,0.04103966,0.41348693,0.99715436,0.008330842,0.0026456662,0.07487998,0.9984769,0.00021564154,0.000901479,0.055163834,1
51094651,0.00865389,0.028815476,0.23476142,0.99711883,0.008344831,0.0027002594,0.07534758,0.9984769,0.00021564154,0.000901479,0.055163834,1
51098649,0.01757265,0.0077489056,-0.1103022,0.99713516,0.008377923,0.002719964,0.07512669,0.9984769,0.00021564154,0.000901479,0.055163834,1
51102607,0.0010894963,-0.019814974,-0.34721553,0.99718726,0.008380975,0.002686195,0.07443301,0.9984769,0.00021564154,0.000901479,0.055163834,1
51106651,-0.027200311,-0.033876907,-0.42529804,0.9972509,0.008329295,0.0026214733,0.073583476,0.9984769,0.00021564154,0.000901479,0.055163834,1
51110640,0.02165244,-0.030366791,-0.21560737,0.9972823,0.008375628,0.0025674354,0.073151805,0.9984769,0.00021564154,0.000901479,0.055163834,1
51114622,-0.04183134,0.004346812,0.119261876,0.99726564,0.008292007,0.0025677518,0.07338894,0.9984769,0.00021564154,0.000901479,0.055163834,1
51118662,-0.017385747,0.0033844155,0.365403,0.9972121,0.008258517,0.0025656573,0.074117176,0.9984769,0.00021564154,0.000901479,0.055163834,1
51122636,0.014865805,0.042103086,0.412735,0.9971502,0.008283846,0.0026447843,0.074940056,0.9984769,0.00021564154,0.000901479,0.055163834,1
51126651,0.001381817,0.034601588,0.1893178,0.99712163,0.008282227,0.0027106334,0.07531727,0.9984769,0.00021564154,0.000901479,0.055163834,1
51130651,0.027661156,-0.0012934715,-0.13634653,0.9971417,0.008336656,0.002714252,0.07504429,0.9984769,0.00021564154,0.000901479,0.055163834,1
51134636,0.022349257,-0.01809717,-0.38786647,0.99719936,0.008381644,0.002687763,0.07426944,0.9984769,0.00021564154,0.000901479,0.055163834,1
51138643,-0.028607085,-0.05369099,-0.3952502,0.9972586,0.008330266,0.0025828644,0.0734797,0.9984769,0.00021564154,0.000901479,0.055163834,1
51142649,0.016657546,-0.0027347417,-0.18074206,0.9972849,0.008362781,0.0025826574,0.07311803,0.9984769,0.00021564154,0.000901479,0.055163834,1
51146609,-0.041031335,-0.007380339,0.14995778,0.9972637,0.008282595,0.00255922,0.07341626,0.9984769,0.00021564154,0.000901479,0.055163834,1
51150643,0.0025888514,0.04453051,0.3848685,0.9972067,0.008283012,0.0026418355,0.07418366,0.9984769,0.00021564154,0.000901479,0.055163834,1
51154628,-0.0020373254,0.034649447,0.41225028,0.9971451,0.0082758,0.0027036034,0.07500549,0.9984769,0.00021564154,0.000901479,0.055163834,1
51158636,-0.0065284483,0.004633153,0.20234582,0.9971149,0.008262999,0.0027083172,0.07540819,0.9984769,0.00021564154,0.000901479,0.055163834,1
51162636,0.06282647,-0.004780403,-0.1504133,0.9971366,0.008388015,0.002710547,0.07510687,0.9984769,0.00021564154,0.000901479,0.055163834,1
51166643,-0.01957435,-0.053306293,-0.38184196,0.99719435,0.008354744,0.0026075132,0.07434364,0.9984769,0.00021564154,0.000901479,0.055163834,1
51170630,0.030884609,-0.0069613736,-0.4302412,0.99725753,0.008414939,0.00260522,0.073484555,0.9984769,0.00021564154,0.000901479,0.055163834,1
51174643,-0.028584924,-0.012793513,-0.19047846,0.99728596,0.00835864,0.0025785246,0.07310367,0.9984769,0.00021564154,0.000901479,0.055163834,1
51178643,-0.035486102,0.01078107,0.12699693,0.9972681,0.008286745,0.0025925385,0.07335651,0.9984769,0.00021564154,0.000901479,0.055163834,1
51182648,-0.005946218,0.02488505,0.3869026,0.997211,0.008273073,0.0026347097,0.07412773,0.9984769,0.00021564154,0.000901479,0.055163834,1
51186632,-0.022148684,0.030145148,0.3994195,0.99715173,0.008226359,0.0026847625,0.07492406,0.9984769,0.00021564154,0.000901479,0.055163834,1
51190651,0.025188128,0.0121533135,0.17406608,0.9971252,0.008275543,0.0027097415,0.075270355,0.9984769,0.00021564154,0.000901479,0.055163834,1
51194644,0.025419744,-0.001004618,-0.10084622,0.99714005,0.008325708,0.0027130696,0.075068034,0.9984769,0.00021564154,0.000901479,0.055163834,1
51198609,0.0140921315,-0.031982593,-0.38447556,0.99719733,0.008356327,0.0026576992,0.07430053,0.9984769,0.00021564154,0.000901479,0.055163834,1
51202629,0.010195462,-0.027621176,-0.36876732,0.9972519,0.008378641,0.002610129,0.07356364,0.9984769,0.00021564154,0.000901479,0.055163834,1
51206661,-0.0036004258,-0.012387007,-0.19050004,0.9972802,0.008372131,0.0025879275,0.07318252,0.9984769,0.00021564154,0.000901479,0.055163834,1
51210631,-0.053608865,-0.009952031,0.16958892,0.9972562,0.00826737,0.0025572411,0.07351998,0.9984769,0.00021564154,0.000901479,0.055163834,1
51214668,3.223354e-05,0.035426103,0.35051343,0.9972043,0.008263871,0.0026219592,0.07421879,0.9984769,0.00021564154,0.000901479,0.055163834,1
51218642,-0.011613935,0.011064894,0.38785696,0.9971466,0.008240939,0.002635747,0.07499168,0.9984769,0.00021564154,0.000901479,0.055163834,1
51222632,0.026208138,0.04812158,0.15786313,0.9971223,0.008286655,0.0027328897,0.07530618,0.9984769,0.00021564154,0.000901479,0.055163834,1
51226649,0.032790326,-0.014966829,-0.16064891,0.997146,0.008353274,0.002710512,0.07498447,0.9984769,0.00021564154,0.000901479,0.055163834,1
51230628,-0.008018944,-0.030068718,-0.3737892,0.9972023,0.008339613,0.0026554652,0.07423767,0.9984769,0.00021564154,0.000901479,0.055163834,1
51234643,0.020563643,-0.025107862,-0.37149817,0.997257,0.00838224,0.002614505,0.07349513,0.9984769,0.00021564154,0.000901479,0.055163834,1
51238673,-0.013185924,-0.038803846,-0.14950569,0.9972794,0.008360739,0.0025375844,0.0731955,0.9984769,0.00021564154,0.000901479,0.055163834,1
51242631,-0.016924912,0.017652122,0.17260928,0.99725425,0.008325121,0.0025673201,0.07353923,0.9984769,0.00021564154,0.000901479,0.055163834,1
51246609,-0.048330955,0.025021635,0.38729757,0.99719775,0.008226879,0.0026035667,0.07431143,0.9984769,0.00021564154,0.000901479,0.055163834,1
51250638,0.022421451,0.03937475,0.3775762,0.9971408,0.008267578,0.0026791296,0.07506426,0.9984769,0.00021564154,0.000901479,0.055163834,1
51254622,0.008999529,0.029794116,0.15707992,0.997117,0.00828175,0.0027372,0.075377,0.9984769,0.00021564154,0.000901479,0.055163834,1
51258623,0.03096421,-0.009493344,-0.18387386,0.9971442,0.008343796,0.0027258918,0.07500901,0.9984769,0.00021564154,0.000901479,0.055163834,1
51262662,0.0167002,-0.03761916,-0.36374834,0.9971986,0.00838064,0.0026593592,0.074282005,0.9984769,0.00021564154,0.000901479,0.055163834,1
51266628,-0.008294896,-0.03558236,-0.3534024,0.9972512,0.008367366,0.0025930037,0.07357575,0.9984769,0.00021564154,0.000901479,0.055163834,1
51270627,-0.013102325,-0.02773951,-0.11872388,0.99726903,0.008344572,0.0025376729,0.0733376,0.9984769,0.00021564154,0.000901479,0.055163834,1
51274667,-0.04645642,0.0113423215,0.18599004,0.99724245,0.008251082,0.0025503107,0.07370804,0.9984769,0.00021564154,0.000901479,0.055163834,1
51278636,-0.004681359,0.02524067,0.35290965,0.99719024,0.008239686,0.0025941255,0.074412115,0.9984769,0.00021564154,0.000901479,0.055163834,1
51282634,0.015392128,0.03738777,0.3316555,0.99714035,0.008266399,0.0026653837,0.07507249,0.9984769,0.00021564154,0.000901479,0.055163834,1
51286669,0.023234727,0.04882956,0.08837233,0.99712646,0.008305765,0.0027647098,0.07524845,0.9984769,0.00021564154,0.000901479,0.055163834,1
51290612,0.008338157,-0.029006548,-0.21397822,0.9971587,0.008325454,0.0027115964,0.074820064,0.9984769,0.00021564154,0.000901479,0.055163834,1
51294632,0.030873908,-0.013277858,-0.3702566,0.99721336,0.008386866,0.0026958762,0.07408065,0.9984769,0.00021564154,0.000901479,0.055163834,1
51298662,-0.029764699,-0.048845276,-0.31988668,0.99726146,0.008332902,0.0025993553,0.07344088,0.9984769,0.00021564154,0.000901479,0.055163834,1
51302644,-0.02414759,-0.024087423,-0.038678963,0.99726766,0.00828796,0.0025483705,0.07336249,0.9984769,0.00021564154,0.000901479,0.055163834,1
51307430,-0.029846525,0.017483491,0.24439545,0.99722505,0.0082135955,0.0025803298,0.07394648,0.9984769,0.00021564154,0.000901479,0.055163834,1
51311462,-0.0042042583,0.038427535,0.35498714,0.99717224,0.008201512,0.0026504735,0.07465442,0.9984769,0.00021564154,0.000901479,0.055163834,1
51315428,0.03414272,0.04933506,0.24400862,0.99713486,0.008263609,0.0027498857,0.07514066,0.9984769,0.00021564154,0.000901479,0.055163834,1
51319447,-0.017660618,-0.004951003,-0.0030971875,0.9971358,0.008229186,0.0027373729,0.075133644,0.9984769,0.00021564154,0.000901479,0.055163834,1
51323454,0.07320366,-0.022059336,-0.2825067,0.99717706,0.008377012,0.0027089932,0.07456846,0.9984769,0.00021564154,0.000901479,0.055163834,1
51327455,-0.010094231,-0.045274794,-0.36950484,0.9972324,0.008361648,0.0026233834,0.073829904,0.9984769,0.00021564154,0.000901479,0.055163834,1
51331431,-0.01524598,-0.009794938,-0.29325703,0.9972759,0.008331134,0.0026065062,0.07324401,0.9984769,0.00021564154,0.000901479,0.055163834,1
51335454,-0.015960779,-0.024379147,0.078238636,0.99726486,0.008303283,0.0025542758,0.073398784,0.9984769,0.00021564154,0.000901479,0.055163834,1
51339435,-0.04628633,0.024731271,0.31122184,0.9972197,0.008208861,0.0025916654,0.07401943,0.9984769,0.00021564154,0.000901479,0.055163834,1
51343442,0.022733668,0.020856714,0.39336672,0.99716073,0.008253115,0.0026302093,0.07480328,0.9984769,0.00021564154,0.000901479,0.055163834,1
51347455,0.019822655,0.050026774,0.25249216,0.9971222,0.008286458,0.0027288417,0.07530676,0.9984769,0.00021564154,0.000901479,0.055163834,1
51351402,-0.015811678,0.00044064235,-0.052076112,0.9971305,0.008254524,0.0027282531,0.07520215,0.9984769,0.00021564154,0.000901479,0.055163834,1
51355441,0.044878464,-0.021974996,-0.30485314,0.9971756,0.008345635,0.0026962517,0.07459253,0.9984769,0.00021564154,0.000901479,0.055163834,1
51359477,0.0020637182,-0.04543679,-0.43495426,0.9972403,0.008354144,0.002613291,0.073723614,0.9984769,0.00021564154,0.000901479,0.055163834,1
51363430,-0.02983356,-0.020826573,-0.28132293,0.99728227,0.00829618,0.0025721276,0.07316142,0.9984769,0.00021564154,0.000901479,0.055163834,1
51367451,0.009402826,-0.0048008766,0.06366784,0.99727297,0.008315915,0.0025629478,0.07328743,0.9984769,0.00021564154,0.000901479,0.055163834,1
51371477,-0.049094796,0.0051911185,0.34954205,0.9972223,0.008219006,0.0025603657,0.07398388,0.9984769,0.00021564154,0.000901479,0.055163834,1
51375447,0.016671166,0.046765566,0.4384136,0.9971566,0.008247539,0.0026490458,0.074858434,0.9984769,0.00021564154,0.000901479,0.055163834,1
51379432,0.011975512,0.033855528,0.29314965,0.99711215,0.008267846,0.00271361,0.07544246,0.9984769,0.00021564154,0.000901479,0.055163834,1
51383463,0.00782867,0.011591113,-0.047291286,0.9971192,0.008281414,0.0027387948,0.075347394,0.9984769,0.00021564154,0.000901479,0.055163834,1
51387426,0.03840704,-0.040543,-0.3344918,0.997169,0.008362227,0.0026693793,0.074678525,0.9984769,0.00021564154,0.000901479,0.055163834,1
51391465,-0.026290063,-0.049666427,-0.4364417,0.99723464,0.008314846,0.00257383,0.07380651,0.9984769,0.00021564154,0.000901479,0.055163834,1
51395448,0.006988908,-0.012810075,-0.3106463,0.9972803,0.00832903,0.0025546143,0.073185936,0.9984769,0.00021564154,0.000901479,0.055163834,1
51399404,-0.024726618,-0.008440387,0.051681235,0.99727327,0.008281139,0.0025334333,0.07328815,0.9984769,0.00021564154,0.000901479,0.055163834,1
51403457,-0.02285657,0.030400777,0.27556503,0.99723303,0.008232429,0.0025863154,0.073837794,0.9984769,0.00021564154,0.000901479,0.055163834,1
51407454,-0.001756778,0.021101087,0.43124744,0.9971689,0.008228012,0.002621189,0.07469706,0.9984769,0.00021564154,0.000901479,0.055163834,1
51411425,0.007859603,0.040793564,0.30067086,0.99712354,0.008239128,0.0026989116,0.075296216,0.9984769,0.00021564154,0.000901479,0.055163834,1
51415454,0.02023773,0.0007575068,-0.026559588,0.99712735,0.008279216,0.0027040697,0.07524222,0.9984769,0.00021564154,0.000901479,0.055163834,1
51419458,0.05449289,-0.024904441,-0.2765987,0.99716806,0.008390091,0.0026673528,0.074689105,0.9984769,0.00021564154,0.000901479,0.055163834,1
51423437,-0.022485653,-0.018527435,-0.44216028,0.9972342,0.008345624,0.002634649,0.07380611,0.9984769,0.00021564154,0.000901479,0.055163834,1
51427429,-0.02705876,-0.029330675,-0.27565363,0.9972755,0.008294502,0.002576943,0.073255,0.9984769,0.00021564154,0.000901479,0.055163834,1
51431447,0.022053944,-0.009027472,0.0017830674,0.9972749,0.008339802,0.0025623252,0.07325736,0.9984769,0.00021564154,0.000901479,0.055163834,1
51435446,-0.05386504,-0.00541233,0.27791148,0.99723506,0.008234562,0.0025391893,0.073810905,0.9984769,0.00021564154,0.000901479,0.055163834,1
51439433,0.022657095,0.04779971,0.4265619,0.9971712,0.0082748495,0.0026310803,0.07466154,0.9984769,0.00021564154,0.000901479,0.055163834,1
51443433,-0.021252643,0.0148770325,0.33395854,0.9971214,0.008231981,0.002652262,0.075326905,0.9984769,0.00021564154,0.000901479,0.055163834,1
51447426,0.03477613,0.014885564,0.020848159,0.9971177,0.008299171,0.00268705,0.075367555,0.9984769,0.00021564154,0.000901479,0.055163834,1
51451439,0.039367866,-0.024220364,-0.2806157,0.99715936,0.008379811,0.0026495547,0.07480635,0.9984769,0.00021564154,0.000901479,0.055163834,1
51455475,-0.03284603,-0.028586745,-0.44849956,0.99722683,0.008316211,0.0025953823,0.07391056,0.9984769,0.00021564154,0.000901479,0.055163834,1
51459427,0.019188954,-0.022688033,-0.3216158,0.99727404,0.008356154,0.0025585585,0.07326761,0.9984769,0.00021564154,0.000901479,0.055163834,1
51463430,-0.039755,-0.015886571,-0.07140175,0.9972853,0.0082787955,0.002522473,0.07312411,0.9984769,0.00021564154,0.000901479,0.055163834,1
51467453,-0.0037563273,0.018267596,0.25496194,0.99724793,0.00826992,0.0025543775,0.07363198,0.9984769,0.00021564154,0.000901479,0.055163834,1
51471433,-0.009327697,0.025296059,0.44432458,0.99718225,0.008249867,0.0025963634,0.07451738,0.9984769,0.00021564154,0.000901479,0.055163834,1
51475435,-0.013800735,0.044908725,0.35627195,0.99712896,0.008217491,0.0026782795,0.07522787,0.9984769,0.00021564154,0.000901479,0.055163834,1
51479460,0.025224509,0.005185536,0.11913639,0.9971106,0.008267657,0.0026907271,0.0754644,0.9984769,0.00021564154,0.000901479,0.055163834,1
51483445,0.033813123,-0.015445664,-0.24614659,0.99714726,0.008336114,0.0026693626,0.07497196,0.9984769,0.00021564154,0.000901479,0.055163834,1
51487456,0.004075319,-0.048048295,-0.4008124,0.9972073,0.008349308,0.0025811694,0.07417118,0.9984769,0.00021564154,0.000901479,0.055163834,1
51491449,0.009636892,-0.030005865,-0.3612606,0.99726075,0.008371126,0.002529042,0.07344856,0.9984769,0.00021564154,0.000901479,0.055163834,1
51495417,-0.039249644,-0.011029999,-0.11496567,0.99727833,0.008293913,0.0025035103,0.073218405,0.9984769,0.00021564154,0.000901479,0.055163834,1
51499452,-0.03626285,0.01879246,0.22242872,0.9972462,0.008219973,0.0025322787,0.07366145,0.9984769,0.00021564154,0.000901479,0.055163834,1
51503475,0.009490522,0.02807512,0.38648057,0.99718875,0.008236737,0.0025836227,0.07443191,0.9984769,0.00021564154,0.000901479,0.055163834,1
51507426,-0.013777101,0.024819937,0.37826958,0.9971323,0.008207509,0.002625136,0.07518582,0.9984769,0.00021564154,0.000901479,0.055163834,1
51511465,0.044337105,0.02967647,0.11538722,0.9971142,0.008292149,0.0026894591,0.07541532,0.9984769,0.00021564154,0.000901479,0.055163834,1
51515454,0.009733414,-0.032669026,-0.2006145,0.9971444,0.008315404,0.0026294817,0.07501401,0.9984769,0.00021564154,0.000901479,0.055163834,1
51519427,0.029094746,-0.01891982,-0.39610726,0.9972031,0.0083741825,0.002603022,0.074222535,0.9984769,0.00021564154,0.000901479,0.055163834,1
51523435,-0.010896938,-0.036992803,-0.39685512,0.9972623,0.0083558755,0.0025345741,0.07342925,0.9984769,0.00021564154,0.000901479,0.055163834,1
51527456,-0.027878806,-0.011289259,-0.12616286,0.9972814,0.0083013065,0.0025104138,0.07317658,0.9984769,0.00021564154,0.000901479,0.055163834,1
51531435,-0.04471418,0.02237217,0.2313888,0.99724805,0.008210041,0.0025449854,0.07363758,0.9984769,0.00021564154,0.000901479,0.055163834,1
51535448,-0.013116324,0.023638554,0.3983887,0.9971893,0.00818244,0.002583999,0.074431635,0.9984769,0.00021564154,0.000901479,0.055163834,1
51539435,0.056345973,0.03353757,0.3602921,0.99713427,0.008291716,0.0026537362,0.07514964,0.9984769,0.00021564154,0.000901479,0.055163834,1
51543438,-0.008836304,0.017532196,0.17179646,0.9971086,0.008272396,0.0026848924,0.07549151,0.9984769,0.00021564154,0.000901479,0.055163834,1
51547437,0.039180133,-0.0060088253,-0.19093934,0.9971367,0.008350418,0.0026823527,0.07510944,0.9984769,0.00021564154,0.000901479,0.055163834,1
51551446,0.009923992,-0.049239606,-0.37531644,0.99719304,0.008375623,0.0025922793,0.074359015,0.9984769,0.00021564154,0.000901479,0.055163834,1
51555433,-0.019015888,0.0043816473,-0.4076431,0.99725366,0.008334958,0.0026053842,0.073545106,0.9984769,0.00021564154,0.000901479,0.055163834,1
51559428,-0.0055167936,-0.042346098,-0.18415703,0.99728113,0.008329249,0.0025235752,0.07317611,0.9984769,0.00021564154,0.000901479,0.055163834,1
51563442,-0.03197671,0.0059780153,0.18575881,0.99725443,0.008265564,0.0025281147,0.073545866,0.9984769,0.00021564154,0.000901479,0.055163834,1
51567441,-0.037404977,0.011418289,0.36700028,0.9972007,0.008191124,0.0025397132,0.07427758,0.9984769,0.00021564154,0.000901479,0.055163834,1
51571435,0.017734967,0.0358014,0.40882733,0.99713916,0.008223314,0.0026075435,0.07509364,0.9984769,0.00021564154,0.000901479,0.055163834,1
51575450,0.030656552,0.056372784,0.14075719,0.9971174,0.008276685,0.0027224664,0.07537359,0.9984769,0.00021564154,0.000901479,0.055163834,1
51579441,0.010801375,-0.030329902,-0.12821367,0.99713665,0.008302138,0.0026661463,0.075116284,0.9984769,0.00021564154,0.000901479,0.055163834,1
51583436,0.039159853,-0.01955716,-0.36964518,0.9971914,0.00838124,0.0026395752,0.07437754,0.9984769,0.00021564154,0.000901479,0.055163834,1
51587437,-0.021406678,-0.054960568,-0.37484375,0.99724764,0.008344783,0.0025334721,0.073628105,0.9984769,0.00021564154,0.000901479,0.055163834,1
51591457,-0.01123075,-0.025291555,-0.18681778,0.9972755,0.008325222,0.002484941,0.07325422,0.9984769,0.00021564154,0.000901479,0.055163834,1
51595433,-0.038263667,0.023456708,0.17538798,0.9972503,0.008246358,0.002523649,0.0736037,0.9984769,0.00021564154,0.000901479,0.055163834,1
51599516,-0.039479725,0.013693345,0.36905968,0.9971964,0.008167536,0.0025394887,0.07433921,0.9984769,0.00021564154,0.000901479,0.055163834,1
51603423,0.06805313,0.021141892,0.40316653,0.9971349,0.008302163,0.00258561,0.07514207,0.9984769,0.00021564154,0.000901479,0.055163834,1
51607433,0.025549136,0.038550764,0.14293817,0.9971129,0.008348114,0.0026644378,0.07542671,0.9984769,0.00021564154,0.000901479,0.055163834,1
