timestamp,magnetometer_ga[0],magnetometer_ga[1],magnetometer_ga[2]
49913915,0.2546637,-0.2875575,0.22750033
49935585,0.2515339,-0.28737885,0.23624355
49955590,0.25158748,-0.2874384,0.23331106
49977950,0.25471726,-0.28761706,0.22456786
49999586,0.25460905,-0.29050234,0.23049381
50022584,0.2543948,-0.29026413,0.24222371
50045255,0.25461015,-0.28749794,0.23043282
50069235,0.25589445,-0.2919317,0.1601144
50093236,0.2545566,-0.2874384,0.23336528
50117257,0.24511246,-0.28984722,0.26258838
50137608,0.2806852,-0.29880083,0.26635456
50158588,0.40621233,-0.44970185,0.38616377
50179584,0.4099224,-0.47457072,0.34565127
50201619,0.3898001,-0.48402742,0.4716664
50222590,0.34419858,-0.4049934,0.3665152
50243590,0.38554662,-0.41977713,0.37930924
50265970,0.37668282,-0.44687617,0.37676305
50289618,0.39951646,-0.4698988,0.42753696
50313967,0.38268465,-0.41989625,0.37339005
50337606,0.32617843,-0.38072008,0.37743175
50359584,0.35229594,-0.42212638,0.41103098
50384629,0.29196146,-0.32818958,0.2994387
50407601,0.33025566,-0.42703658,0.3168189
50428617,0.40362146,-0.44110563,0.36539918
50450459,0.3661854,-0.48447725,0.30103368
50471586,0.34986904,-0.40469566,0.381286
50492672,0.37038857,-0.3953847,0.39614502
50515585,0.36652794,-0.42775127,0.2822799
50535584,0.45222223,-0.49883777,0.6315791
50556619,0.3557493,-0.41665363,0.38457093
50578428,0.33819342,-0.4409865,0.37007114
50598593,0.382601,-0.5009551,0.37796944
50622045,0.35051844,-0.387384,0.34573033
50646023,0.3730319,-0.40704492,0.4140381
50670213,0.35420623,-0.47234058,0.30643776
50694062,0.40265405,-0.44904673,0.4183668
50716632,0.33805275,-0.38672888,0.37777063
50738705,0.37060612,-0.38660976,0.38423213
50759584,0.35387263,-0.5050315,0.32470354
50780629,0.36714607,-0.41010886,0.41105813
50802705,0.35273555,-0.39255896,0.38696122
50823627,0.3272887,-0.42102778,0.31664267
50844661,0.40171123,-0.53516155,0.46998775
50864673,0.35543463,-0.39826998,0.4017998
50886848,0.34339416,-0.49155802,0.24793728
50908641,0.42222852,-0.5318594,0.48496875
50928634,0.36763814,-0.3836054,0.3841169
50950861,0.34529883,-0.47234058,0.30627507
50973585,0.41170546,-0.49429125,0.41064698
50996620,0.36217296,-0.40817645,0.3581041
51017584,0.34046403,-0.3864045,0.24574819
51040606,0.37941656,-0.5037213,0.3897061
51062835,0.34124282,-0.36894074,0.365729
51084622,0.37330192,-0.4013339,0.3992537
51104631,0.3911257,-0.52156895,0.39908645
51124637,0.34025314,-0.37715313,0.25729513
51147218,0.38227066,-0.38036275,0.39605695
51169584,0.3850814,-0.5184455,0.4047819
51190843,0.34037584,-0.39502737,0.4131976
51215021,0.34663773,-0.38937593,0.3955892
51235630,0.38357955,-0.46297008,0.3243919
51259184,0.405631,-0.42801607,0.41799405
51281584,0.34976527,-0.39556336,0.386968
51304635,0.3393873,-0.40023533,0.30470273
51325586,0.39950088,-0.5119602,0.4283909
51345586,0.35310155,-0.41701096,0.36692184
51366584,0.37026137,-0.389528,0.24048653
51390586,0.40088338,-0.5405482,0.35269547
51413585,0.40748098,-0.4117435,0.4793253
51433594,0.38108903,-0.3880657,0.4607544
51453586,0.40841162,-0.5029471,0.4283706
51476031,0.34559333,-0.4005331,0.29014876
51498584,0.35640427,-0.38432005,0.34871024
51521585,0.38540277,-0.5188028,0.38718706
51542585,0.39571267,-0.40885818,0.4731824
51564069,0.37566963,-0.3739105,0.26961476
51586599,0.38156667,-0.4850728,0.27198005
51609594,0.4158807,-0.42049178,0.3446618
51630592,0.3646634,-0.3986273,0.38436764
51653586,0.29876342,-0.45538625,0.25225687
51674593,0.4064433,-0.46469086,0.53614026
51698585,0.34981772,-0.3986273,0.3840965
51721591,0.322377,-0.39812425,0.2603292
51741595,0.3931832,-0.5235609,0.44905376
51761586,0.3678457,-0.40186992,0.37275293
51783585,0.3562637,-0.4743325,0.35640508
51807593,0.41667855,-0.49622357,0.463601
51828842,0.34949747,-0.39526558,0.40163034
51849591,0.34397432,-0.43179467,0.37879404
51870585,0.3648051,-0.4498805,0.37660715
51890592,0.35840046,-0.40728313,0.40203702
51911584,0.37644854,-0.50071687,0.3895909
51935627,0.3452653,-0.41820207,0.3081096
51959591,0.36429292,-0.3861929,0.40465102
51983591,0.3619063,-0.40487432,0.3727055
52007591,0.37315023,-0.52139026,0.4075585
52031585,0.3808503,-0.3941074,0.31120485
52055590,0.35633844,-0.41730875,0.35231367
52079590,0.36886218,-0.40600586,0.3170969
52103633,0.39075416,-0.5121389,0.4194308
52127594,0.40498942,-0.42429703,0.45312274
52151585,0.36110514,-0.3979722,0.41657066
52175593,0.34404457,-0.38678843,0.37494662
52199588,0.36716288,-0.50931317,0.41013852
52223591,0.35342512,-0.41135952,0.349205
52245597,0.36461428,-0.38655022,0.38705614
52266591,0.3502239,-0.45919147,0.36185658
52287584,0.4104747,-0.43010053,0.31541157
52309637,0.36859328,-0.40871248,0.33182025
52330585,0.35593346,-0.49801025,0.37448788
52351585,0.40217426,-0.5023185,0.60725844
52373914,0.36158827,-0.3955038,0.39011735
52397631,0.3449797,-0.46597448,0.32374793
52421914,0.40310714,-0.5276968,0.39356038
52445651,0.33307746,-0.39080524,0.32493863
52467585,0.3670959,-0.40103614,0.41380763
52487592,0.38069862,-0.5141638,0.31950966
52509626,0.35699227,-0.38797954,0.31651402
52530586,0.37632576,-0.3983891,0.39631447
52551586,0.38180208,-0.48804423,0.4217126
52573937,0.34419635,-0.4110022,0.36663717
52597608,0.36757678,-0.40457654,0.38747633
52621929,0.35654598,-0.4355733,0.34094974
52645694,0.38395554,-0.5201992,0.46642494
52669968,0.32951918,-0.39015013,0.3571416
52693640,0.36223543,-0.38420096,0.35468367
52715585,0.37166062,-0.43286666,0.32649752
52738018,0.42211914,-0.53774905,0.49095568
52762055,0.33853477,-0.38726488,0.35137835
52784613,0.35284376,-0.3896737,0.38103524
52806714,0.36176798,-0.488878,0.38027832
52827586,0.41260362,-0.44389838,0.5240919
52848632,0.374324,-0.3904479,0.34329265
52870760,0.35050285,-0.42944542,0.34658426
52891628,0.40551162,-0.4609452,0.42452994
52912659,0.36412892,-0.39502737,0.4136314
52934793,0.3546034,-0.41266975,0.28469047
52955629,0.3779593,-0.5321572,0.46949294
52978594,0.3409683,-0.38666934,0.38075733
53000624,0.35597247,-0.39285675,0.37235305
53022744,0.3509648,-0.48406035,0.3212899
53046412,0.41576025,-0.5162419,0.51388
53068630,0.33064392,-0.3914008,0.2955596
53091586,0.35121134,-0.39717135,0.3077911
53112640,0.3452419,-0.48129418,0.30939052
53134721,0.39963806,-0.4309609,0.42087904
53158713,0.3620703,-0.3960398,0.36372507
53181591,0.380963,-0.3792046,0.30503494
53202828,0.40094474,-0.519577,0.349336
53223589,0.38614136,-0.40541032,0.34674704
53244619,0.35461122,-0.39163902,0.2842635
53266832,0.39160106,-0.5401313,0.3730601
53288653,0.3436876,-0.48257145,0.39449334
53308662,0.3646623,-0.40163168,0.38442865
53329627,0.3937746,-0.51820725,0.41667452
53351561,0.30614433,-0.38155386,0.33599746
53373591,0.36164406,-0.3895546,0.3870629
53396617,0.40613875,-0.5037213,0.39019415
53417585,0.38672826,-0.4120742,0.31461176
53439550,0.37060726,-0.3836054,0.38417113
53460641,0.3213293,-0.47811112,0.31769314
53482828,0.4242023,-0.47064006,0.5395201
53503588,0.3673101,-0.40127435,0.4020777
53524651,0.34380808,-0.44663796,0.38789645
53545584,0.39385155,-0.45517465,0.41246113
53567516,0.32946563,-0.39009058,0.3600741
53588635,0.3679439,-0.42602414,0.36737597
53608632,0.39065146,-0.5000022,0.42505172
53628620,0.34987462,-0.3896737,0.38098103
53649593,0.36883768,-0.47210234,0.3184388
53669585,0.38273486,-0.42896897,0.37064058
53689586,0.35208726,-0.40686625,0.4224559
53709591,0.38237786,-0.52475196,0.3901873
53731629,0.35430208,-0.41805,0.4638088
53753585,0.36730787,-0.40728313,0.40219972
53773593,0.389876,-0.5084528,0.30488795
53795636,0.34748575,-0.41436392,0.3491575
53819649,0.3757355,-0.40073836,0.4286327
53841587,0.29131436,-0.48376256,0.3348677
53861592,0.42075005,-0.41329193,0.4032978
53883649,0.3538034,-0.40276325,0.32849467
53905638,0.33774376,-0.43777686,0.23206851
53925640,0.3981273,-0.45933717,0.50359833
53946643,0.3646645,-0.3956229,0.38430664
53969585,0.32274076,-0.48840156,0.40303317
53992346,0.38593045,-0.3961589,0.35829395
54014585,0.37605795,-0.39809132,0.41097683
54037585,0.30921614,-0.39369053,0.33043072
54058585,0.39906126,-0.5415277,0.45246065
54082585,0.3585634,-0.40145302,0.3931176
54105592,0.3710826,-0.40216768,0.3581448
54125586,0.39246804,-0.51404464,0.3255915
54147583,0.3394453,-0.38827732,0.30152625
54171591,0.3705972,-0.41064486,0.3847201
54195625,0.37909406,-0.5063683,0.40736198
54219594,0.39285284,-0.40296853,0.46714127
54243591,0.37124997,-0.38432005,0.34898138
54265591,0.35534877,-0.42552105,0.24387981
54287593,0.39317763,-0.53858286,0.44935873
54311594,0.3405923,-0.3892568,0.40134567
54334585,0.36466673,-0.38961414,0.38418466
54354586,0.39182752,-0.5073212,0.36065924
54374592,0.3502551,-0.37506866,0.3601487
54396638,0.37978134,-0.38690755,0.3697324
54419584,0.39086795,-0.4942317,0.41319984
54443584,0.34440947,-0.41424483,0.35496825
54467584,0.3588925,-0.38077962,0.37509578
54491593,0.35332578,-0.3902097,0.354643
54514585,0.38497874,-0.50630873,0.4104029
54534592,0.34998506,-0.38077962,0.3749331
54555591,0.3561889,-0.3870862,0.36050114
54577636,0.392256,-0.50779766,0.33719942
54598586,0.3443146,-0.3810774,0.36016223
54619586,0.3678535,-0.3808392,0.37232596
54641937,0.39016387,-0.51448816,0.45174903
54665641,0.3722263,-0.41216037,0.45814723
54689994,0.35725453,-0.40329924,0.3021566
54713665,0.36264718,-0.4297432,0.33213878
54737958,0.3874592,-0.5237991,0.4372154
54761656,0.3504091,-0.39327362,0.35171723
54783585,0.35279578,-0.3745922,0.38366276
54806591,0.3453791,-0.40029487,0.3018787
54829258,0.40214306,-0.5266248,0.44634494
54853223,0.3407519,-0.39243984,0.39260924
54877229,0.3735195,-0.39255896,0.3873408
54897624,0.34402454,-0.4408674,0.37604457
54917595,0.36157492,-0.43155643,0.39084932
54941419,0.36298078,-0.39705226,0.31387296
54965258,0.35893717,-0.40487432,0.37265125
54989259,0.39372772,-0.50012136,0.419241
55013244,0.42868224,-0.50208026,0.6194764
55036621,0.345378,-0.40329924,0.30193967
55059589,0.34543824,-0.38533252,0.29864123
55082588,0.3557192,-0.497772,0.38621783
55103586,0.40542012,-0.47858122,0.5921623
55126585,0.35829893,-0.39214206,0.407597
55148678,0.3441127,-0.43224454,0.20859516
55170849,0.40166214,-0.5230844,0.47267625
55194478,0.34404346,-0.3897928,0.37500763
55216631,0.36996007,-0.39490825,0.4196048
55239590,0.37305203,-0.497236,0.41293547
55262594,0.39957112,-0.466954,0.42454347
55284632,0.36060196,-0.39470297,0.2815005
55306732,0.3479287,-0.37578332,0.32490477
55330493,0.39690554,-0.51538146,0.40787032
55352634,0.38718128,-0.40627068,0.4524314
55375585,0.367367,-0.39232072,0.39896226
55396620,0.34128076,-0.41106176,0.36365044
55418702,0.39280272,-0.538166,0.46988606
55439630,0.34441614,-0.39621848,0.35460228
55462594,0.356132,-0.3960398,0.36361662
55483592,0.34535572,-0.46338695,0.3031596
55505592,0.4147649,-0.45502257,0.5683772
55527592,0.36402178,-0.39490825,0.41949636
55550835,0.3410319,-0.3596894,0.3772759
55571587,0.41152808,-0.53917843,0.42035934
55595231,0.34404236,-0.39279717,0.37506863
55617584,0.34268218,-0.3885751,0.2869181
55638842,0.34653625,-0.51850504,0.40114447
55662849,0.36477718,-0.38072008,0.3781367
55683586,0.36126804,-0.39214206,0.40765125
55704624,0.36808228,-0.4862905,0.35979846
55724654,0.38397563,-0.40630364,0.30270565
55745591,0.37664708,-0.39874643,0.3787196
55766835,0.37904164,-0.5033044,0.41023344
55787587,0.413051,-0.39330024,0.4995951
55808635,0.36137402,-0.39526558,0.40184727
55830859,0.36856875,-0.47480896,0.33316216
55852680,0.403993,-0.45053563,0.34505484
55873640,0.3502462,-0.39910376,0.36063668
55896633,0.38551325,-0.4500922,0.21851777
55918854,0.38071644,-0.46609357,0.31853372
55941585,0.3417795,-0.36653197,0.33634323
55964644,0.35904542,-0.401989,0.36672533
55985585,0.3787225,-0.49693823,0.42770633
56005587,0.34075856,-0.37441355,0.39224327
56026591,0.35212743,-0.38316187,0.25763404
56048633,0.37779975,-0.5289741,0.47822937
56070592,0.33810186,-0.39880598,0.37508217
56094586,0.37485176,-0.4120742,0.31439483
56117584,0.32236806,-0.4819759,0.42343852
56137593,0.42173412,-0.4201015,0.5120366
56157596,0.36380756,-0.39467,0.43122625
56180086,0.3878988,-0.4942317,0.4131456
56202592,0.42388317,-0.40445742,0.3943716
56225586,0.35257375,-0.3953847,0.39581963
56246585,0.33958814,-0.43652618,0.29370475
56268380,0.374844,-0.49292147,0.47744322
56290584,0.35289732,-0.38973325,0.37810278
56313590,0.34726033,-0.38435298,0.19887604
56334584,0.4053298,-0.5178499,0.43448627
56357602,0.38777265,-0.40091702,0.42005217
56378586,0.36568546,-0.38774133,0.3284066
56402592,0.37946677,-0.512794,0.38695663
56425586,0.35386586,-0.3787877,0.32507423
56447590,0.36407983,-0.38295028,0.4163199
56469586,0.38514388,-0.4944699,0.4013615
56491585,0.3324883,-0.39015013,0.35719585
56513586,0.35840604,-0.39226118,0.40173203
56534592,0.38519746,-0.4945295,0.398429
56554584,0.33249053,-0.3841414,0.35707384
56575584,0.3527389,-0.38354585,0.38677824
56599626,0.3667913,-0.49988312,0.43048286
56623592,0.34143922,-0.4172492,0.35497501
56647592,0.36795837,-0.3869671,0.36658302
56671593,0.34139678,-0.38714576,0.35729754
56695591,0.38460383,-0.50589186,0.43093023
56719590,0.37288013,-0.3828312,0.42234752
56743594,0.3581338,-0.40398097,0.41663843
56766629,0.36287257,-0.39993754,0.31979892
56786638,0.40584755,-0.5665156,0.40613744
56806640,0.37743932,-0.42968363,0.33534238
56826625,0.33285663,-0.4930469,0.17440845
56846629,0.45382008,-0.52465945,0.54409283
56867632,0.37248963,-0.4244757,0.4437288
56890586,0.37892783,-0.5212116,0.4164644
56913271,0.42781305,-0.53417575,0.66706693
56937271,0.37275743,-0.42477348,0.42906645
56961263,0.39067376,-0.43991452,0.42383182
56985283,0.41060084,-0.5832317,0.47112638
57009435,0.39218566,-0.4085338,0.34105152
57033266,0.4081081,-0.45451954,0.4449895
57053929,0.40537664,-0.53593576,0.43191978
57077639,0.43918082,-0.48611185,0.36989737
57101959,0.38716346,-0.45434088,0.45340735
57125616,0.3753193,-0.4516672,0.28879553
57147585,0.42246956,-0.6042624,0.47177026
57167584,0.36217296,-0.40817645,0.3581041
57190015,0.39811614,-0.42956454,0.34158695
57211584,0.4192907,-0.5920066,0.48320195
57233248,0.3803493,-0.44464603,0.3386341
57253943,0.37971553,-0.41989625,0.37333584
57277646,0.42193955,-0.5886449,0.50079006
57298585,0.3728623,-0.43090135,0.42332345
57319585,0.41804314,-0.42861164,0.38888618
57341914,0.43153542,-0.61044985,0.4632575
57364652,0.4660782,-0.5668667,0.6860377
57387586,0.37475806,-0.43571898,0.4821492
57408606,0.37880623,-0.5003329,0.2605009
57431224,0.46442688,-0.6254388,0.61383057
57451590,0.37545878,-0.4244757,0.44378304
57472631,0.38828823,-0.5400451,0.2291993
57495216,0.47350943,-0.5865605,0.6044029
57515586,0.39104754,-0.4433358,0.4033655
57536634,0.38781962,-0.5632731,0.417481
57559238,0.48053557,-0.5426858,0.54494685
57579596,0.36898154,-0.43289328,0.47318232
57603015,0.38652527,-0.5260622,0.32572702
57625587,0.4609925,-0.66429055,0.47662762
57647586,0.42295593,-0.44851074,0.44513866
57671535,0.3877537,-0.4519916,0.4210891
57693584,0.46153033,-0.6588773,0.44718087
57715617,0.44067043,-0.5746354,0.45095834
57738585,0.4026485,-0.46406868,0.41867176
57762592,0.43931252,-0.6242211,0.5253071
57785586,0.5029084,-0.65235925,0.6209494
57805591,0.40069586,-0.46820465,0.36296144
57825586,0.4525347,-0.60768366,0.4518462
57848025,0.4756685,-0.6036934,0.64881015
57870584,0.39330706,-0.47861418,0.44227386
57893586,0.4163461,-0.61036366,0.31917974
57914592,0.51393586,-0.63037556,0.6676589
57936376,0.40221,-0.4906317,0.44268054
57958584,0.45386812,-0.68401104,0.54146063
57981585,0.5252936,-0.6445308,0.85890704
58002591,0.40545696,-0.46389002,0.42752343
58025586,0.45646572,-0.674581,0.5618592
58046591,0.5111688,-0.6038455,0.49392444
58069595,0.3795928,-0.4618385,0.38005474
58090585,0.45129728,-0.62133586,0.5195981
58113591,0.42363998,-0.54214984,0.57030874
58134585,0.3669218,-0.43691012,0.42333698
58157585,0.4120581,-0.55479586,0.39133954
58178584,0.41629362,-0.5228462,0.48467728
58198592,0.33905703,-0.42391306,0.32278553
58218594,0.35243765,-0.4733796,0.40327048
58238585,0.35320196,-0.4351564,0.36142284
58258591,0.33533585,-0.4290881,0.36390796
58283585,0.33803716,-0.4287903,0.3786246
58305183,0.3590934,-0.41707054,0.3640978
58327584,0.34155303,-0.39934197,0.3487441
58351584,0.3468955,-0.4167132,0.38147575
58374592,0.35001972,-0.4319138,0.37303752
58395585,0.35282928,-0.42873076,0.3818282
58419596,0.35234725,-0.42819473,0.4082205
58443584,0.34699813,-0.42884985,0.3758548
58467595,0.34646145,-0.43125868,0.40524057
58491633,0.34969613,-0.4375652,0.3907544
58515591,0.3482233,-0.44824594,0.30877382
58539593,0.3649736,-0.4290285,0.36738274
58563592,0.35936007,-0.42037266,0.34949642
58587591,0.35293752,-0.42584547,0.37590227
58611594,0.35282817,-0.43173513,0.3818892
58635584,0.3509302,-0.43292624,0.3231854
58657939,0.3547016,-0.43682396,0.2793135
58681643,0.3558497,-0.43479908,0.37907195
58705926,0.34407812,-0.44092697,0.37311205
58729653,0.34557885,-0.43959013,0.29094172
58751585,0.35670888,-0.4297432,0.33203033
58777640,0.35914248,-0.42914763,0.3614093
58798586,0.3411681,-0.4259646,0.3698204
58819586,0.3534151,-0.438399,0.34975395
58841957,0.35028303,-0.44422913,0.35861915
58865646,0.35541904,-0.4403314,0.40265375
58886627,0.34434924,-0.43221155,0.3582667
58907638,0.3469959,-0.43485862,0.3759768
58929677,0.3554246,-0.42530948,0.40234876
58953896,0.35579953,-0.42572638,0.38182142
58977622,0.35563773,-0.42855206,0.39067987
58999584,0.3434354,-0.44021228,0.4083018
59022585,0.35638645,-0.4323902,0.34968618
59043586,0.356122,-0.42307928,0.36416557
59065614,0.35298997,-0.42890942,0.37303075
59086586,0.35453758,-0.44565848,0.28829393
59106718,0.34795663,-0.44494382,0.32337517
59694851,0.35009444,-0.37489,0.36894614
59715586,0.33831945,-0.39003104,0.36316925
59736617,0.3874123,-0.50571316,0.4397819
59756606,0.36407536,-0.3949678,0.4165639
59779216,0.34195587,-0.4689193,0.3266872
59799594,0.41342935,-0.5289741,0.4788801
59821585,0.33832502,-0.37500912,0.36286426
59843587,0.35575598,-0.3986273,0.38420495
59864676,0.37617293,-0.52144986,0.40468022
59885629,0.33927682,-0.40912935,0.31075063
59907596,0.3439319,-0.40169126,0.38111654
59931222,0.3444999,-0.45942968,0.35001823
59953597,0.39881796,-0.47513333,0.46578115
59976632,0.34097388,-0.3716474,0.38045236
59998837,0.3588356,-0.38973325,0.37821123
60021584,0.34669134,-0.47388902,0.23003067
60044634,0.3777205,-0.4537453,0.48256943
60065595,0.3532778,-0.3751282,0.35727048
60085585,0.33030808,-0.43010053,0.3139474
60105586,0.39986008,-0.46998495,0.57134354
60127662,0.36540875,-0.41147864,0.34355694
60151647,0.34325576,-0.43129164,0.2555148
60172649,0.39016053,-0.52350134,0.451932
60194584,0.341399,-0.38113695,0.35717556
60215592,0.3428183,-0.3703967,0.4420886
60236625,0.38587588,-0.5433739,0.36128274
60256642,0.35511217,-0.40091702,0.41945568
60279639,0.3536025,-0.36647242,0.33949262
60301642,0.35933447,-0.48947355,0.35089934
60322626,0.34043276,-0.44589028,0.5727035
60345584,0.35338044,-0.38726488,0.3516495
60366586,0.3394632,-0.48447725,0.30054563
60389596,0.3664409,-0.43336973,0.44966832
60410584,0.35268643,-0.38048184,0.3896497
60433592,0.3451392,-0.40934098,0.15239015
60454592,0.3996582,-0.5211521,0.41977644
60478585,0.31505173,-0.38155386,0.33616015
60501595,0.36038324,-0.4064823,0.29347438
60521586,0.2263258,-0.2499894,0.15285319
60543584,0.25116682,-0.26593128,0.2563439
60567593,0.27491096,-0.28996634,0.2572657
60591651,0.2731067,-0.32732922,0.19342893
60615592,0.2804643,-0.31658897,0.27845043
60639592,0.2835952,-0.3137632,0.26964623
60663584,0.27765134,-0.32878515,0.26984277
60687584,0.28942525,-0.3166485,0.27568066
60711585,0.27607363,-0.333338,0.19360515
60735591,0.28937057,-0.31959334,0.27867413
60759633,0.28073093,-0.3198911,0.26384905
60783591,0.28326827,-0.32842782,0.2875461
60807610,0.29007015,-0.31135437,0.24036896
60831584,0.2777049,-0.3288447,0.26691028
60855592,0.2923955,-0.31364408,0.2756739
60879593,0.274738,-0.32283592,0.26673406
60902593,0.2832705,-0.32241905,0.2874241
60925181,0.2810523,-0.32024845,0.2462542
60945604,0.28947768,-0.31971243,0.27280918
60965674,0.28051338,-0.32866603,0.27576196
60990262,0.28926343,-0.31947422,0.28453907
61013708,0.274632,-0.31971243,0.27253804
61034585,0.2834323,-0.31959334,0.27856568
61055591,0.27872142,-0.33298066,0.21125424
61077669,0.28051895,-0.31364408,0.27545696
61098590,0.28634453,-0.3285469,0.28173536
61121234,0.27468556,-0.319772,0.26960555
61145243,0.2807287,-0.32589987,0.26397106
61169251,0.28714788,-0.32944027,0.23774822
61193236,0.28078225,-0.32595944,0.26103857
61217234,0.29239103,-0.32566166,0.27591786
61241234,0.27511403,-0.32024845,0.24614576
61261670,0.28629205,-0.325483,0.28460684
61282585,0.2783465,-0.33256376,0.23178159
61303601,0.28725725,-0.32355058,0.23176128
61325997,0.28757414,-0.33592552,0.2144104
61349676,0.28137478,-0.3176014,0.22859834
61373970,0.28342786,-0.3316109,0.27880964
61397685,0.2863501,-0.31352496,0.28143036
61419592,0.27500468,-0.3261381,0.25213268
61442824,0.28624073,-0.31941468,0.28741732
61466797,0.27495113,-0.32607856,0.25506517
61489585,0.28634453,-0.3285469,0.28173536
61511586,0.28153098,-0.3297976,0.2200449
61532650,0.28645498,-0.3196529,0.27568743
61554799,0.28369564,-0.33190864,0.26414728
61578848,0.28629428,-0.31947422,0.28448486
61601586,0.28056803,-0.3257212,0.2727685
61623564,0.29076308,-0.32114178,0.20242974
61644631,0.27765134,-0.32878515,0.26984277
61665585,0.2837012,-0.31688672,0.26384228
61687607,0.28337765,-0.32253814,0.28155914
61711311,0.28672388,-0.3169463,0.26096404
61733591,0.2875228,-0.32985714,0.21722089
61755586,0.28629428,-0.31947422,0.28448486
61778584,0.28353718,-0.3257212,0.2728227
61799597,0.2807845,-0.31995067,0.2609166
61820624,0.2919637,-0.3221808,0.29931667
61841260,0.27473468,-0.3318491,0.26691705
61861599,0.28774038,-0.32108223,0.20530798
61883594,0.2893159,-0.32253814,0.2816676
61907589,0.2774929,-0.3225977,0.2785182
61931584,0.28639808,-0.3286065,0.27880287
61954585,0.28624186,-0.3164103,0.28735632
61974585,0.28455144,-0.33586594,0.21728864
61995585,0.27457735,-0.32265726,0.2755315
62018585,0.28910166,-0.32229993,0.29339752
62038585,0.27149886,-0.3285469,0.28146422
62058585,0.28624186,-0.3164103,0.28735632
62078585,0.28942302,-0.32265726,0.27580264
62100633,0.27893564,-0.33321887,0.19952433
62123591,0.28613362,-0.31929556,0.2932823
62145715,0.27765244,-0.32578078,0.26978177
62170249,0.29239327,-0.3196529,0.27579588
62193704,0.27500692,-0.32012933,0.2520107
62214585,0.29054552,-0.32991672,0.21434262
62235585,0.28508928,-0.3304527,0.1878419
62258020,0.28158677,-0.32384837,0.21699044
62281662,0.28385854,-0.32607856,0.25522786
62305965,0.28942412,-0.3196529,0.27574164
62329692,0.2789412,-0.31819695,0.19921935
62353978,0.28337651,-0.32554254,0.28162012
62377713,0.283487,-0.3166485,0.2755722
62398627,0.27722287,-0.3283087,0.2933026
62419628,0.2837012,-0.31688672,0.26384228
62442074,0.29076084,-0.32715055,0.20255174
62465700,0.28179988,-0.327091,0.20532152
62490051,0.28078115,-0.32896382,0.26109958
62513648,0.28062606,-0.3137632,0.26959202
62535585,0.27759668,-0.33172998,0.27283624
62555585,0.28385854,-0.32607856,0.25522786
62577699,0.28629428,-0.31947422,0.28448486
62598592,0.2686904,-0.32872558,0.27261257
62619586,0.29244906,-0.31370363,0.2727414
62642492,0.27468222,-0.32878515,0.26978853
62663586,0.28429148,-0.3145374,0.23152407
62684603,0.28321582,-0.32536387,0.29041755
62706775,0.2745238,-0.3225977,0.27846396
62727586,0.29250038,-0.319772,0.2699309
62748628,0.27468222,-0.32878515,0.26978853
62770877,0.28953236,-0.31676763,0.26981568
62794501,0.27823824,-0.33544907,0.23770753
62814585,0.28624073,-0.31941468,0.28741732
62837971,0.28666696,-0.32589987,0.2640795
62858829,0.2804085,-0.32253814,0.2815049
62882495,0.28655764,-0.33178955,0.27006644
62904638,0.2874168,-0.32673365,0.22302485
62927585,0.2833754,-0.3285469,0.28168112
62948629,0.28073207,-0.31688672,0.26378807
62970830,0.29525304,-0.32554254,0.28183705
62994470,0.27770936,-0.31682718,0.26666632
63016620,0.29372665,-0.33616373,0.20278895
63039584,0.28720257,-0.32649544,0.23475474
63062810,0.2865052,-0.32872558,0.27293795
63086829,0.45473272,-0.37539303,0.4941234
63110846,0.3908802,-0.4611834,0.41252887
63131630,0.3568138,-0.43587106,0.32628736
63155584,0.36604476,-0.43021962,0.3087332
63176619,0.3500275,-0.4108831,0.37261057
63197585,0.34987795,-0.38066053,0.38079804
63219581,0.3530982,-0.42602414,0.36710483
63240623,0.44282505,-0.60378593,0.49560967
63262824,0.4591458,-0.58709645,0.5777394
63283586,0.57456154,-0.66151804,0.763308
63304619,0.72581244,-1.1085699,1.1008973
63325593,0.63925326,-0.8288374,0.9615754
63347304,0.5670791,-0.7202095,0.68512726
63367586,0.9302073,-1.0055537,1.2932913
63389585,0.9951634,-0.9182809,1.1518413
63411275,1.045754,-1.4498128,1.4717001
63431586,0.99615985,-1.0363123,1.2599046
63453585,0.92990726,-1.1768368,1.1470966
63475566,0.8798426,-1.0212967,0.96107423
63496620,0.9214628,-1.0243607,0.9589619
63518592,0.9329132,-1.0178756,0.9825166
63540624,0.9271511,-0.9759928,0.9727568
63562585,0.9702934,-0.980453,1.0499367
63585588,0.97491056,-1.0153475,0.959755
63606585,0.938164,-0.9930662,1.0202593
63629585,0.9331396,-0.98506546,0.9701158
63649591,0.9383325,-0.97221416,1.011035
63671635,0.9250903,-0.9830139,0.92297244
63692636,0.84257156,-0.90855944,0.88767195
63712647,0.789965,-0.81631684,0.84081787
63735643,0.7204386,-0.76714796,0.74464023
63758584,0.6906,-0.73091674,0.75216335
63780608,0.69855225,-0.70580965,0.80462265
63800618,0.6901816,-0.70340085,0.77507424
63820632,0.7324356,-0.7312145,0.73826015
63840669,0.7312127,-0.70580965,0.8052192
63860664,0.7522063,-0.71806544,0.79411286
63881635,0.7372414,-0.7509945,0.8003776
63902635,0.76353955,-0.73850054,0.8240815
63925586,0.7408532,-0.75170916,0.7652421
63946592,0.7454492,-0.7592335,0.83884555
63968642,0.7184201,-0.7198191,0.85515934
63989174,0.6951579,-0.69632,0.8278453
64011590,0.6613728,-0.63525283,0.7262094
64034592,0.64852655,-0.64920276,0.77908206
64056640,0.7096678,-0.6752032,0.6838829
64078584,0.7356312,-0.6984045,0.7259136
64098597,0.74987775,-0.7247889,0.7589909
64119584,0.7342689,-0.7600077,0.80050635
64142586,0.75021464,-0.7429013,0.90316343
64162586,0.76532155,-0.7612254,0.8891382
64184641,0.79365045,-0.76301205,0.80165195
64207602,0.7824334,-0.77847743,0.9279517
64229586,0.79569674,-0.7950479,0.85222924
64249588,0.7923059,-0.77654517,0.8752689
64271591,0.78626275,-0.7704172,0.88090336
64295627,0.81551224,-0.80599344,0.9056374
64319600,0.8363531,-0.7970398,0.90290153
64343597,0.83359593,-0.80328685,0.8912394
64367591,0.853889,-0.8267859,0.9184992
64391594,0.862639,-0.8175941,0.9272763
64415591,0.84375304,-0.816403,0.98560053
64439591,0.8552011,-0.81592655,1.0092773
64461727,0.8528234,-0.81057286,0.9768437
64486024,0.8506554,-0.81747496,0.93292445
64509717,0.8369333,-0.82173,0.87113225
64533737,0.86900246,-0.8270837,0.904108
64557993,0.86480033,-0.8287183,0.9715617
64581696,0.85531276,-0.8040281,1.0031683
64602585,0.8732391,-0.79212964,0.9973848
64625215,0.8761468,-0.8131008,1.0007985
64647638,0.8583376,-0.7980789,1.0001681
64670240,0.87426114,-0.7812437,0.9414237
64693722,0.8680529,-0.78695464,0.9560996
64717703,0.86157674,-0.7923679,0.9854379
64739584,0.8750601,-0.7941545,0.8976805
64762587,0.83501524,-0.7925466,0.9761524
64783585,0.858669,-0.7713967,0.98202425
64805969,0.8641185,-0.7888871,1.008891
64829691,0.86218035,-0.753966,0.9523877
64853992,0.86429036,-0.7590218,0.9994836
64877740,0.8569351,-0.7637533,0.9143401
64901985,0.85187495,-0.7674394,1.0287745
64924611,0.8625519,-0.76339597,0.93204343
64947586,0.8346526,-0.75908136,0.9960088
64970073,0.85349166,-0.74218667,0.9402512
64994058,0.81007606,-0.7524504,0.8780387
65016603,0.8002101,-0.7363565,0.93035567
65038805,0.83356583,-0.7401352,0.89289093
65059585,0.81176203,-0.74501234,0.9483504
65080629,0.8513817,-0.73713076,0.8931553
65102798,0.808842,-0.75708944,0.94560766
65123630,0.85346603,-0.8112875,0.9416541
65146593,0.8321688,-0.7506042,0.9693793
65168635,0.86373025,-0.7647062,0.86752886
65190837,0.8910561,-0.72630435,0.8349668
65214479,0.85147995,-0.70146847,0.72515696
65236638,0.79437786,-0.6796635,0.7618219
65259585,0.7759194,-0.6819532,0.7967472
65280629,0.7529249,-0.6587519,0.75477076
65302758,0.74505854,-0.65660787,0.8602315
65326485,0.66403157,-0.6048516,0.7432485
65348626,0.66396695,-0.63483596,0.746791
65370063,0.6806001,-0.5827223,0.64919245
65392646,0.69626474,-0.60137075,0.76724386
65413585,0.7432186,-0.645841,0.7983512
65434833,0.77343446,-0.6764805,0.77017874
65457591,0.84307915,-0.6957245,0.85988146
65479586,0.8783226,-0.72535145,0.88166946
65503601,0.8904056,-0.74662036,0.8705835
65527296,0.86611134,-0.7610467,0.8997794
65549586,0.8586076,-0.7923679,0.9853837
65571602,0.86486614,-0.7957296,0.9679583
65594843,0.86445326,-0.75319177,0.99056417
65618817,0.84133744,-0.76892835,0.9552456
65642828,0.87638223,-0.7562557,0.98790956
65663630,0.8817091,-0.7558718,0.85887384
65687581,0.90822154,-0.743616,0.8708479
65708640,0.8847842,-0.75899523,0.85312414
65729585,0.87157977,-0.72746253,0.9256092
65751580,0.8550549,-0.71687436,0.8546604
65772644,0.881236,-0.7313007,0.88477814
65794799,0.8607634,-0.75869745,0.86735266
65815586,0.851606,-0.7103295,0.8808764
65836634,0.8442205,-0.7117259,0.9600059
65856635,0.83859247,-0.7421271,0.9429125
65878592,0.8755208,-0.70750386,0.87245184
65899606,0.87976867,-0.72695947,0.8024926
65920633,0.85764694,-0.72246623,0.87536395
65940678,0.8640203,-0.7049163,0.8516466
65962591,0.85646635,-0.72716475,0.9400004
65984105,0.8598762,-0.6945929,0.91592383
66004643,0.8664048,-0.6922437,0.8837141
66024636,0.87626624,-0.7203551,0.8316412
66046590,0.84486204,-0.71544504,0.9248771
66067620,0.8357516,-0.6851629,0.9358344
66088620,0.8426573,-0.6772217,0.8829753
66108621,0.82452005,-0.67986876,0.90030575
66131596,0.840756,-0.68742603,0.8244545
66154585,0.8375202,-0.6841239,0.8390017
66177585,0.8483836,-0.67097473,0.89469165
66198591,0.836873,-0.6954267,0.87443537
66221592,0.83692765,-0.69248194,0.8714419
66242592,0.8521014,-0.6748129,0.8537522
66264051,0.8327869,-0.67314535,0.9355362
66284633,0.82786405,-0.68028563,0.8798327
66304625,0.83337045,-0.6888224,0.9035839
66326599,0.83094037,-0.6804048,0.87402195
66347585,0.817611,-0.6968231,0.95334786
66369239,0.8217082,-0.6890606,0.8916371
66391585,0.82042056,-0.69364,0.96213853
66414592,0.83336157,-0.7128575,0.90407187
66435591,0.81333303,-0.6986693,0.8623327
66459593,0.7897964,-0.6928988,0.85004693
66483585,0.77209663,-0.6719872,0.8434297
66507584,0.74904865,-0.64872634,0.8043856
66531592,0.73459125,-0.6130905,0.7828552
66555636,0.7467267,-0.6374234,0.7688977
66579584,0.77360064,-0.6616371,0.76107633
66603591,0.7276578,-0.6363249,0.6746178
66627591,0.7026281,-0.61086035,0.7440755
66651585,0.7118502,-0.62924397,0.7270093
66675591,0.7463328,-0.68808115,0.79046196
66699585,0.76895225,-0.7108655,0.8529658
66723642,0.8242802,-0.7487314,0.9134386
66747593,0.81808186,-0.7274029,0.9275655
66771591,0.84170675,-0.7843672,0.9350232
66793671,0.85309786,-0.7928443,0.9618154
66815585,0.80258685,-0.74471456,0.9628501
66835584,0.8505583,-0.7903164,0.9382404
66858008,0.8257887,-0.7861804,0.99346256
66881692,0.8396603,-0.7523313,0.8844459
66905997,0.8289264,-0.7653284,0.98429245
66929714,0.8294128,-0.7538469,0.95765615
66954028,0.83868957,-0.7692857,0.9375965
66977675,0.836256,-0.76988125,0.9082175
66999585,0.82698256,-0.7454292,0.92809415
67022585,0.8355107,-0.7570299,0.94902825
67043585,0.8295177,-0.7599747,0.9519132
67065647,0.8196306,-0.74114764,0.84276766
67086584,0.80982167,-0.71610016,0.8919691
67107590,0.81667036,-0.7171126,0.8422255
67129660,0.8333047,-0.7218111,0.90718734
67150586,0.8091723,-0.73341167,0.9275248
67171585,0.8280001,-0.7465608,0.87237716
67193704,0.8402037,-0.7318963,0.85469425
67214584,0.81856614,-0.7219302,0.9010512
67235585,0.8128365,-0.7371903,0.8895179
67258794,0.8147913,-0.7270456,0.94510615
67279584,0.81941193,-0.7529269,0.8547416
67300608,0.8037696,-0.73400724,0.8980916
67322769,0.83610314,-0.7486718,0.91658795
67343584,0.8636264,-0.755574,0.8732109
67364632,0.8720998,-0.7701194,0.89713836
67386807,0.82126415,-0.7306456,0.9159508
67407586,0.84613526,-0.7499225,0.85516864
67428649,0.8175574,-0.6967636,0.9562803
67450535,0.790679,-0.68456733,0.9643457
67470591,0.8103037,-0.7166361,0.86557686
67494045,0.8058427,-0.6939378,0.94720507
67514590,0.78666437,-0.6987289,0.8589121
67534592,0.8342676,-0.7258875,0.85446376
67558046,0.7941692,-0.7242199,0.93586814
67578632,0.79243755,-0.7105677,0.868062
67598630,0.82513934,-0.74367553,0.86639696
67618840,0.80026037,-0.7454292,0.9276061
67642468,0.79586077,-0.78621346,0.8432488
67663586,0.8099054,-0.77931124,0.8873851
67684622,0.7924264,-0.7406116,0.86867195
67706752,0.8127172,-0.7701194,0.8960538
67729584,0.78621584,-0.7523313,0.8834698
67750793,0.81363326,-0.75610995,0.8458967
67774840,0.8072553,-0.78567743,0.869858
67797585,0.7999112,-0.760365,0.7841045
67819592,0.7682928,-0.75521666,0.88907045
67840620,0.7641221,-0.81699854,0.95481163
67862802,0.82025105,-0.80195004,0.80879784
67883586,0.77150977,-0.80959344,0.8755602
67904618,0.79230255,-0.78555834,0.87545186
67926823,0.77002347,-0.7718732,0.95693755
67950819,0.7554935,-0.7872524,0.9393766
67974853,0.7788382,-0.8171506,0.79954624
67997585,0.78071064,-0.8850604,0.85965294
68019608,0.77054346,-0.81453013,0.92846674
68043287,0.79556847,-0.85201216,0.8592531
68065584,0.78809154,-0.811228,0.9433935
68088630,0.78015155,-0.80328685,0.8902633
68110823,0.80368155,-0.8270837,0.90291494
68131599,0.78888935,-0.82714325,0.8997114
68152634,0.77006817,-0.7959678,0.9544931
68172632,0.7906791,-0.8288374,0.96434104
68194585,0.80147105,-0.8038824,0.8613181
68215610,0.7987251,-0.78008544,0.849046
68236637,0.8012601,-0.794631,0.872865
68257587,0.7699599,-0.7988531,0.96041906
68279601,0.80094546,-0.7762474,0.8900939
68300668,0.7858354,-0.7669364,0.9043021
68320685,0.7818911,-0.7959083,0.95764244
68340687,0.76531935,-0.7672342,0.88926023
68360681,0.76375943,-0.78353345,0.9746679
68380679,0.7909469,-0.8291352,0.9496787
68400668,0.77973205,-0.7787752,0.9132351
68420665,0.79425514,-0.7814223,0.9311621
68440696,0.8094111,-0.8118235,0.9144484
68460665,0.7941056,-0.7511998,0.9393496
68481630,0.8064609,-0.7607489,0.9133572
68502629,0.785726,-0.772826,0.91028905
68524417,0.78714645,-0.75908136,0.9951412
68545587,0.7548095,-0.75342995,0.9768278
68567620,0.78891164,-0.7670555,0.89849144
68590593,0.78837943,-0.75744677,0.92763317
68613594,0.8126658,-0.7640511,0.89886427
68634604,0.806192,-0.7634555,0.92808056
68657591,0.8088855,-0.78418857,0.94322413
68679592,0.82241565,-0.80406106,0.85290027
68703591,0.80285025,-0.7570299,0.94843173
68727590,0.79101604,-0.7871333,0.9458922
68751584,0.78200597,-0.7749967,0.9513505
68775592,0.7915527,-0.78472453,0.91650647
68798590,0.8096811,-0.8061125,0.899664
68818592,0.7875091,-0.7925466,0.97528476
68839591,0.8077608,-0.7829379,1.0048062
68863591,0.7937174,-0.7868355,0.9606089
68887604,0.8099121,-0.76128495,0.8870191
68911593,0.783461,-0.75256956,0.87168574
68932874,0.8211403,-0.77559227,0.92273074
68955637,0.8248068,-0.77336204,0.8846018
68978584,0.8004702,-0.757685,0.9161202
68999584,0.8120098,-0.7993891,0.9347859
69023585,0.82826126,-0.7648849,0.85808074
69047591,0.81558365,-0.7579828,0.901729
69071591,0.80931956,-0.769643,0.91945934
69095591,0.82606316,-0.76845187,0.97843426
69117732,0.8366778,-0.78838396,0.88512367
69142074,0.8032709,-0.77853703,0.9253988
69165705,0.8089904,-0.7903164,0.9374812
69186586,0.8331117,-0.8087596,0.9177536
69207586,0.83943605,-0.77913254,0.8967248
69229691,0.8194844,-0.7617284,1.0133935
69250586,0.8389451,-0.80263174,0.9236051
69273218,0.821677,-0.7731834,0.89334494
69297240,0.841805,-0.8085214,0.92964625
69321242,0.8203827,-0.7957891,0.96421236
69345275,0.8242088,-0.796742,0.91734695
69369234,0.83688194,-0.8156617,0.87394273
69393250,0.8223175,-0.7799068,0.85827726
69413698,0.8363698,-0.751974,0.9019866
69438040,0.8459032,-0.79775447,0.86787444
69461699,0.8403488,-0.77413625,0.84675074
69486023,0.8310007,-0.8067081,0.87071884
69509670,0.83731717,-0.7981118,0.8501169
69531584,0.8582171,-0.77419585,0.8441436
69551584,0.81716025,-0.7564343,0.9780276
69572620,0.8278819,-0.77648556,0.87885207
69596623,0.8337689,-0.7704172,0.88177097
69619590,0.8054366,-0.7776437,0.9694402
69642595,0.82979554,-0.73323303,0.9367019
69664617,0.83620244,-0.76982164,0.91115
69686838,0.8441391,-0.78677595,0.96446323
69710585,0.8445107,-0.79620606,0.94411886
69732618,0.85502595,-0.79498833,0.8562463
69756636,0.8562444,-0.74795717,0.95215726
69779584,0.8270908,-0.742544,0.92216825
69800631,0.8241284,-0.7245177,0.92174804
69822806,0.85175437,-0.74355644,0.87275
69846488,0.8249162,-0.7674724,0.87861484
69868639,0.79767066,-0.7338286,0.9067806
69891586,0.81547654,-0.7578637,0.9075939
69912635,0.8120254,-0.7573277,0.93393195
69934469,0.8135172,-0.7800259,0.8522496
69954586,0.85031736,-0.8023669,0.7888129
69978019,0.81537163,-0.75173575,0.91333693
69998651,0.88348323,-0.79962736,0.9243575
70018629,0.92828584,-0.8059339,0.9106305
70039622,0.9138273,-0.7733025,0.88916105
70062584,0.90800065,-0.76140404,0.8829437
70085591,0.8693874,-0.8004611,0.88303167
70106586,0.8225016,-0.7768099,1.0108203
70129586,0.82405925,-0.76651955,0.9255344
70150584,0.8177885,-0.79620606,0.9436308
70174585,0.82917744,-0.81069195,0.970545
70197585,0.84812033,-0.8029295,0.90910536
70219623,0.86669606,-0.7737194,0.8677661
70241594,0.86886406,-0.7668173,0.91168547
70261586,0.90323836,-0.7687231,0.81844276
70283605,0.8890433,-0.80822366,0.9451763
70305589,0.89924943,-0.7736003,0.8742276
70325586,0.8706939,-0.80462366,0.9741147
70347618,0.8745959,-0.74554837,0.9230969
70369639,0.863911,-0.71080595,0.85763353
70389628,0.8567733,-0.7665791,0.92319846
70411585,0.867409,-0.7294278,0.82872903
70435584,0.87372774,-0.7148228,0.8080051
70458595,0.8677895,-0.7148228,0.8078966
70478590,0.88243103,-0.6875451,0.81934875
70499585,0.89382553,-0.6870091,0.845958
70523588,0.90397584,-0.65833503,0.7780637
70547601,0.8833616,-0.6344786,0.76839876
70571592,0.8759705,-0.65089685,0.8478331
70595628,0.846606,-0.63623226,0.829391
70619588,0.85009855,-0.6698761,0.8007914
70643591,0.8712585,-0.6672886,0.7805827
70665592,0.86472327,-0.6876642,0.81315845
70687586,0.8612799,-0.6660975,0.83906955
70710584,0.832026,-0.6425388,0.8145795
70732625,0.85875154,-0.6335257,0.81488454
70754585,0.86273265,-0.64967924,0.75952667
70774585,0.8698704,-0.65372264,0.85658306
70794585,0.8917702,-0.67900836,0.79586864
70816884,0.8525443,-0.63623226,0.8294995
70839584,0.8459053,-0.64747566,0.8677572
70862589,0.8769837,-0.66404605,0.79236007
70883585,0.8797329,-0.6788297,0.8044492
70905982,0.8825426,-0.67564666,0.8132398
70929680,0.84617645,-0.63876027,0.85291183
70954024,0.85842013,-0.6602078,0.8330284
70977696,0.8823808,-0.6784724,0.8220983
70999584,0.8516305,-0.644233,0.87953454
71026016,0.8761156,-0.69313705,0.8398897
71049694,0.8682905,-0.6642842,0.7804675
71074052,0.8827557,-0.6788893,0.8015709
71097677,0.85097665,-0.6735622,0.91533417
71122014,0.8497348,-0.6394154,0.8207088
71145705,0.8439606,-0.63058084,0.81161994
71167585,0.86488837,-0.67582536,0.804117
71193696,0.85427713,-0.6468801,0.89724463
71214591,0.86089945,-0.68070257,0.85990185
71235585,0.86498994,-0.69096637,0.79855704
71257975,0.86048543,-0.641169,0.88256866
71279592,0.87257725,-0.63840294,0.87099475
71302629,0.8841694,-0.683171,0.8867889
71323634,0.8456911,-0.6472374,0.8794871
71346587,0.91898,-0.66452247,0.76965946
71368615,0.9149877,-0.67841285,0.8256272
71391587,0.8794172,-0.6634505,0.8217391
71412637,0.89816487,-0.6641917,0.9336137
71434801,0.8747889,-0.6585998,0.9125306
71458823,0.82526875,-0.683707,0.8593121
71482497,0.8505939,-0.694176,0.93628854
71504635,0.864229,-0.72017646,0.8402217
71527586,0.8536078,-0.71827066,0.9338982
71548623,0.8541913,-0.7339477,0.90194595
71571002,0.86076224,-0.7617018,0.86741364
71591631,0.8568379,-0.73659474,0.91965604
71612681,0.88409907,-0.7281772,0.8906364
71634741,0.85349387,-0.73617786,0.94012916
71658719,0.8564363,-0.8082832,0.9416473
71682475,0.8510816,-0.82396024,0.90958655
71704631,0.8141733,-0.8045045,0.9789493
71727586,0.8297085,-0.82330513,0.94146425
71748634,0.90271956,-1.0467814,1.334712
71770712,0.8475279,-1.0153742,1.1041623
71793585,0.7992263,-1.1377203,1.1468501
71815588,0.82553774,-0.9449035,1.1698267
71838806,0.8782513,-0.83317864,1.0481992
71859586,0.95629454,-0.8641754,1.0032995
71880623,0.9565735,-0.8344293,0.98802716
71902804,0.945719,-0.8235433,0.9318492
71924657,0.93740857,-0.8031677,0.8990023
71945627,0.8120912,-0.724339,0.9303286
71968629,0.8157477,-0.7491483,0.89274853
71990785,0.78110665,-0.74394035,1.0005927
72014821,0.77825356,-0.7200244,0.99418557
72038792,0.79838026,-0.6985502,0.8679265
72062860,0.8299149,-0.7003039,0.930166
72086831,0.8503786,-0.6969422,0.94807947
72110818,0.8657554,-0.70955527,0.9192698
72131594,0.9107297,-0.68599665,0.89613545
72152639,0.8927488,-0.70083994,0.9049125
72172636,0.90567863,-0.75010115,0.8474558
72195324,0.8538766,-0.71556413,0.91917485
72215589,0.8550649,-0.68983483,0.85411143
72236638,0.8238048,-0.7301692,0.9394649
72258600,0.81435513,-0.68778336,0.80637157
72279611,0.8132282,-0.6925415,0.8680756
72300641,0.81645614,-0.71687436,0.85395545
72320641,0.8131846,-0.6654424,0.87045914
72342584,0.8156739,-0.6588976,0.89678365
72364105,0.83320206,-0.70967436,0.91280836
72384633,0.8098406,-0.66502553,0.8909322
72404624,0.8420113,-0.68552023,0.918348
72426585,0.83638984,-0.6978951,0.9008887
72447609,0.85102576,-0.6856393,0.91264576
72468637,0.8388881,-0.6673152,0.9267252
72488631,0.85910857,-0.74182934,0.9579544
72510588,0.8460159,-0.6983981,1.0243306
72532091,0.8333114,-0.70378476,0.90682137
72552620,0.8327222,-0.70312965,0.9390786
72574593,0.83983433,-0.7164575,0.8749166
72596086,0.8432476,-0.67487246,0.85065705
72616635,0.8355742,-0.73005,0.94554675
72638584,0.8293202,-0.7146708,0.9627282
72660142,0.83061564,-0.6890606,0.89179975
72680642,0.8378493,-0.723267,0.9836012
72703682,0.8429732,-0.692601,0.8656854
72726588,0.8365383,-0.7311221,0.8927621
72748930,0.8276309,-0.7311221,0.89259946
72771585,0.83303577,-0.7245177,0.9219107
72794585,0.8248213,-0.734305,0.8838088
72815584,0.7732816,-0.7150877,0.9411705
72839593,0.77957135,-0.7785966,0.92203254
72863593,0.7810441,-0.7080994,0.84139174
72887585,0.85658026,-0.7092575,0.93376946
72911627,0.90438986,-0.757685,0.91801816
72935591,0.9531246,-0.76806796,0.85162187
72959592,0.9449078,-0.78386414,0.813642
72981587,0.8667585,-0.7497438,0.8643457
73003591,0.8011753,-0.7344241,0.8775101
73026585,0.7956477,-0.7829708,0.8549177
73048637,0.79490006,-0.77612823,0.8958504
73070584,0.75452167,-0.74739456,0.8299668
73090585,0.80610836,-0.7846979,0.7700386
73110586,0.838511,-0.75736064,0.7847485
73132891,0.8389138,-0.74248445,0.92531765
73155586,0.88732046,-0.77053636,0.87688214
73178592,0.910963,-0.7794303,0.8833639
73199591,0.90870136,-0.75016075,0.8445775
73222046,0.9072307,-0.7548327,0.76247495
73245731,0.9030152,-0.7925199,0.83066064
73270054,0.8703704,-0.7504585,0.8292102
73293695,0.8646474,-0.74769235,0.8173108
73315585,0.8523893,-0.76530176,0.83798724
73335588,0.8791059,-0.7803237,0.8387802
73357993,0.89055514,-0.77684295,0.862396
73381720,0.89028734,-0.77654517,0.8770584
73405991,0.8811747,-0.7522718,0.8881376
73429802,0.8961207,-0.7704172,0.8829098
73453998,0.8938077,-0.7350792,0.8469339
73477683,0.9157141,-0.7423387,0.78585345
73499584,0.8986659,-0.75792325,0.90617985
73522585,0.9034046,-0.7538798,0.8093403
73543585,0.93273556,-0.7742225,0.9922384
73565673,0.8974351,-0.7535491,0.9735658
73586585,0.89753443,-0.7746989,0.9681278
73607585,0.89233595,-0.8025722,0.92751366
73629661,0.8945106,-0.7776437,0.9710671
73650592,0.8952493,-0.8085214,0.93062234
73670823,0.8404705,-0.7950149,1.0027142
73694489,0.83192563,-0.82848006,0.9826951
73716622,0.7964232,-0.7745203,0.97508144
73738587,0.7891426,-0.722228,0.88584656
73758814,0.7573926,-0.72324044,0.83539796
73782538,0.7653941,-0.7102104,0.88516873
73804678,0.8019586,-0.70494294,0.99724686
73827588,0.81047887,-0.7375743,1.0186079
73848629,0.8758344,-0.7887084,1.0179052
73870866,0.8313643,-0.7527153,1.0134274
73894479,0.8431728,-0.79171276,1.0173697
73916657,0.83701366,-0.8095008,1.0293573
73938586,0.82574296,-0.76509017,0.99596816
73958833,0.80727875,-0.78240186,1.0311984
73982506,0.8204407,-0.7838312,0.9610359
74004632,0.804573,-0.79471713,1.0167258
74027586,0.81050795,-0.8037303,1.0170172
74048634,0.800912,-0.78192544,1.0545498
74071049,0.81311214,-0.7762739,1.0370499
74094478,0.81247276,-0.76654613,1.0720567
74116624,0.81699175,-0.77728635,0.987252
74138781,0.8242377,-0.7784445,1.0783825
74161592,0.84630823,-0.7768695,1.0083216
74183587,0.8492115,-0.80985814,1.0119793
74204692,0.842356,-0.82687205,1.062089
74226850,0.82384384,-0.8291022,1.0999467
74249584,0.8176356,-0.83481324,1.1146226
74271635,0.8179056,-0.8291022,1.0998383
74295276,0.8058316,-0.78379816,1.1104364
74317592,0.7999491,-0.77784896,1.1072735
74340617,0.82632536,-0.78377163,0.9640769
74361585,0.82168704,-0.80596054,1.0554173
74384641,0.82269686,-0.82812274,1.0001273
74405592,0.7943835,-0.78427464,1.0867597
74428632,0.7891995,-0.7730909,1.0453525
74450813,0.7973995,-0.80236053,1.0842474
74472643,0.791903,-0.7667843,1.0599471
74492635,0.79524046,-0.78522754,1.03984
74513591,0.8246026,-0.805901,1.0584041
74535566,0.83797103,-0.8285992,0.9769386
74556687,0.84068245,-0.80126196,0.99110633
74576678,0.83869076,-0.82609785,1.1001569
74597636,0.8555659,-0.7589293,1.1519248
74618628,0.921061,-0.80750895,0.9809625
74640612,0.9081099,-0.815331,1.0395781
74660676,0.8875146,-0.74039996,1.0288762
74681628,0.9125307,-0.8019171,0.9601505
74702627,0.8878281,-0.76178795,1.0117084
74723638,0.906935,-0.74519104,0.9412883
74744684,0.9069194,-0.7872524,0.9421422
74765632,0.92196256,-0.8325564,0.93159837
74786631,0.9338514,-0.7995082,0.9311443
74808675,0.9643819,-0.84853125,0.8857429
74829629,0.9471773,-0.85191965,1.0146228
74850629,0.9798936,-0.8459704,1.0121648
74872420,0.94837785,-0.7931421,0.9488883
74894584,0.9472989,-0.8129817,1.0079648
74917586,0.9386549,-0.7654804,0.83076245
74937586,0.93689525,-0.74248445,0.92710716
74957586,0.9492482,-0.75804234,0.9012368
74979627,0.9669492,-0.7759496,0.90779305
75003613,0.95740247,-0.76622176,0.94263715
75026585,0.96785975,-0.77696204,0.857941
75050585,0.98329794,-0.768604,0.8257719
75073587,0.96127534,-0.78526056,0.8932052
75095584,0.9611336,-0.73400724,0.9009657
75118592,0.9584268,-0.74932694,0.88655406
75139591,1.0015302,-0.79912424,0.8032474
75160996,0.9756502,-0.75468063,0.91925865
75183584,0.97374886,-0.7648849,0.8607379
75206598,0.9790467,-0.7581615,0.8959141
75227585,1.0686964,-0.77023226,1.1912631
75251587,1.0069616,-0.78023124,0.9937161
75275585,0.93457663,-0.72216845,0.8914363
75296883,0.93668103,-0.7422462,0.9388371
75319586,0.96295476,-0.79584867,0.96388286
75341592,0.94480515,-0.831544,0.9818843
75363584,0.912148,-0.82253087,0.9811048
75386627,0.8434374,-0.7412072,0.8402691
75406633,0.80752414,-0.6387007,0.8551393
75426630,0.7686074,-0.6293302,0.8718462
75446628,0.777373,-0.57807696,0.8797694
75466631,0.787365,-0.603032,0.98317194
75486638,0.8156873,-0.622845,0.8960517
75506634,0.81823575,-0.60133785,0.9191387
75526636,0.8390197,-0.60133785,0.91951835
75547648,0.87564695,-0.6565483,0.8655499
75570250,0.8874732,-0.64747566,0.8685164
75593674,0.88757366,-0.66562104,0.86301744
75617701,0.8800599,-0.66416514,0.7865493
75638598,0.84817606,-0.6527102,0.90605557
75659585,0.822545,-0.5998223,0.84582007
75681722,0.809488,-0.60452086,0.91023964
75703591,0.8243727,-0.6436374,0.9083712
75726589,0.83424747,-0.6356963,0.8555664
75747585,0.8312304,-0.6206148,0.85813963
75770044,0.82979095,-0.6009805,0.93695056
75793675,0.8687557,-0.62543243,0.9176161
75817730,0.8849928,-0.62998533,0.84170383
75842076,0.8630919,-0.6077039,0.9024793
75865698,0.85008174,-0.5706718,0.8017111
75890034,0.83972156,-0.5870901,0.8810912
75913677,0.81791776,-0.59196734,0.9365506
75935591,0.84199566,-0.5833115,0.9192066
75961673,0.8140192,-0.58221287,0.82476413
75982595,0.73875874,-0.7397714,1.2051611
76003586,0.7831608,-0.6951289,0.88812166
76024603,0.85161257,-0.5480331,0.88051516
76046819,1.0065397,-0.61745834,1.0168146
76067596,1.1520365,-0.67787683,0.8563578
76088624,1.1379851,-0.7028053,0.81258744
76108632,1.0408183,-0.67365474,0.76620084
76131261,0.9596385,-0.6605056,0.82020974
76151587,0.8468147,-0.6514924,0.81796604
76174839,0.8199274,-0.66333133,0.8265194
76198836,0.7861444,-0.6560719,0.887383
76222814,0.76303184,-0.66279536,0.8518814
76245591,0.8015212,-0.668685,0.85857326
76267273,0.8426038,-0.6771622,0.8859077
76289595,0.88183737,-0.69890755,0.85185
76312627,0.91422004,-0.72564924,0.86765784
76334830,0.93359363,-0.71235436,0.78263646
76356627,0.94277215,-0.70363903,0.7679537
76378596,0.9129234,-0.6944473,0.7760259
76400631,0.8822101,-0.7053332,0.8314447
76420636,0.833876,-0.7107198,0.7132847
76440645,0.81196845,-0.70646477,0.7744261
76460637,0.83420515,-0.74986297,0.8578842
76480634,0.905691,-0.9211396,1.0094014
76500631,0.8729992,-0.8011758,0.8478962
76520635,0.77425677,-0.6861158,0.887776
76540638,0.8719369,-0.71613306,0.7434364
76560632,0.8236921,-0.6852554,0.78301346
76580619,0.87653065,-0.72966605,0.81716174
76600605,0.86226964,-0.7423387,0.78487736
76620626,0.81736773,-0.7148824,0.80404234
76640616,0.83783036,-0.71452504,0.82201684
76660619,0.83287734,-0.7183302,0.9305862
76680618,0.81084704,-0.6962009,0.83582515
76703626,0.8157577,-0.7221089,0.8921996
76724640,0.86741906,-0.70238835,0.8281801
76744666,0.8444226,-0.68519586,0.7863256
76767639,0.88619566,-0.7094692,0.7758428
76790594,0.8601251,-0.68614876,0.7396771
76812647,0.88213974,-0.6905229,0.6726707
76832624,0.89661723,-0.7318963,0.8557246
76853592,0.8915928,-0.72389555,0.80558103
76875591,0.870656,-0.70268613,0.8135719
76898591,0.8830648,-0.7122948,0.784647
76920639,0.8674124,-0.72041464,0.82854605
76942586,0.8651506,-0.69114506,0.78975964
76962586,0.87297344,-0.72600657,0.8493037
76983585,0.8623421,-0.6913237,0.780908
77007590,0.8839642,-0.74335116,0.73540485
77031591,0.9170062,-0.72574174,0.71510804
77055592,0.91562146,-0.7031626,0.7909255
77079635,0.89780664,-0.7031626,0.7906001
77103591,0.89182043,-0.68808115,0.79311913
77127591,0.90353066,-0.7029244,0.80243844
77151592,0.89273757,-0.67106724,0.742901
77175594,0.9156761,-0.7002178,0.78793204
77198584,0.9153514,-0.7088736,0.8057099
77218585,0.8442139,-0.66993564,0.7977505
77238586,0.8614919,-0.6723445,0.82746166
77260920,0.84421283,-0.6729401,0.79781145
77283587,0.84071136,-0.66333133,0.82689905
77309821,0.83335936,-0.6590497,0.7415725
77333709,0.8440443,-0.69379216,0.80703586
77354585,0.8561808,-0.7151206,0.7930174
77375584,0.8526905,-0.675468,0.821495
77397688,0.8669404,-0.69283926,0.8543893
77418584,0.87767214,-0.685851,0.75466484
77441213,0.8501499,-0.67594445,0.7979809
77465228,0.86170834,-0.66657394,0.8156097
77489216,0.85565406,-0.69048995,0.82185423
77513220,0.8373572,-0.6899539,0.8479211
77537200,0.8348679,-0.6964987,0.8215966
77561234,0.8412302,-0.7089927,0.7984892
77581710,0.8574115,-0.7194948,0.72563136
77603585,0.8672628,-0.69019216,0.83673346
77626630,1.0821686,-0.7422462,0.9414943
77647631,0.97046953,-0.7344837,0.8776686
77670055,0.8884775,-0.68465984,0.8135313
77693713,0.75386333,-0.6444712,0.86601514
77717659,0.7323061,-0.646913,0.7453497
77739592,0.72502446,-0.6574417,0.81879723
77762021,0.6862817,-0.61219716,0.8259747
77786039,0.6942808,-0.54535943,0.7132461
77810067,0.6781241,-0.5532145,0.622136
77830589,0.69427973,-0.54836386,0.71330714
77850593,0.6945442,-0.5576748,0.6988278
77874011,0.73271,-0.56921583,0.7232365
77894634,0.7514777,-0.6003317,0.67138726
77915628,0.77437055,-0.608392,0.71892375
77938591,0.77498084,-0.6117803,0.8481289
77962027,0.76374364,-0.6215081,0.81290525
77986010,0.77119833,-0.63792646,0.8926108
78010072,0.79542553,-0.65949315,0.8670793
78034009,0.81275505,-0.6679703,0.8939799
78058030,0.8274288,-0.69783556,0.90365845
78082026,0.85076356,-0.6703196,0.9270031
78102791,0.8828082,-0.6819532,0.79869944
78123595,0.86774147,-0.69974136,0.81052417
78144632,0.83541465,-0.6670504,0.79166186
78166465,0.84060425,-0.66321224,0.83276397
78186592,0.84923273,-0.69295835,0.84819895
78210058,0.8525276,-0.6812981,0.8304144
78231343,0.8156739,-0.6588976,0.89678365
78253592,0.80994326,-0.6771622,0.88531125
78276634,0.82650506,-0.6730592,0.79162115
78297584,0.8313654,-0.6898944,0.85074514
78319600,0.8193438,-0.64765435,0.8584717
78343311,0.8104342,-0.6536631,0.858431
78365585,0.8292632,-0.6638078,0.80322236
78388616,0.8174838,-0.69096637,0.7976894
78410825,0.792192,-0.6501822,0.8815044
78433586,0.8545338,-0.6772217,0.8831922
78455582,0.8339663,-0.6714512,0.8709607
78476639,0.82523185,-0.6385816,0.8613297
78498826,0.82657194,-0.63706607,0.7879567
78519629,0.81140494,-0.63670874,0.8052804
78540637,0.8288426,-0.64230055,0.82625514
78562810,0.8080051,-0.642241,0.828808
78586809,0.82258636,-0.63293016,0.8435586
78609599,0.8406031,-0.6662166,0.832825
78632632,0.8150681,-0.6434917,0.76733446
78653584,0.80312574,-0.6764805,0.770721
78676632,0.79299986,-0.63905805,0.83727336
78698584,0.7801035,-0.6439352,0.89289546
78720638,0.8099533,-0.65012264,0.8847623
78740625,0.81976223,-0.67517024,0.83556086
78760635,0.8105502,-0.6297471,0.8520781
78782591,0.78965807,-0.63263243,0.8576244
78805586,0.8401222,-0.6626763,0.85915625
78826585,0.7692501,-0.6300449,0.8366566
78849585,0.80991316,-0.69846404,0.72433674
78870584,0.78812605,-0.6582754,0.7788814
78892677,0.79418814,-0.61332875,0.7722099
78912682,0.8199419,-0.6242743,0.8257265
78932651,0.82264656,-0.6149634,0.8402601
78952666,0.8256235,-0.5939327,0.8398873
78972668,0.8765195,-0.61543983,0.8177764
78992668,0.8492617,-0.61484426,0.8466131
79012659,0.85028374,-0.6039583,0.7906521
79032652,0.8347373,-0.6152016,0.82874715
79052684,0.8722315,-0.6443255,0.7273101
79073630,0.8479439,-0.6407256,0.75614005
79094627,0.8903018,-0.67767155,0.7136441
79115638,0.88631284,-0.68254876,0.7694289
79136681,0.8404502,-0.64500725,0.8411954
79157636,0.87343425,-0.63935584,0.82407504
79180636,0.8436917,-0.6332875,0.8263433
79203600,0.8897807,-0.63801897,0.7421759
79226586,0.89799184,-0.6372447,0.78046083
79247585,0.91430813,-0.6325728,0.8628345
79270585,0.90291244,-0.63611317,0.8362863
79290607,0.89211386,-0.619278,0.77705383
79311592,0.89799297,-0.6342404,0.7803998
79333586,0.88568014,-0.65479463,0.8040697
79355591,0.8602534,-0.6291844,0.7326532
79379592,0.87201613,-0.6470917,0.739101
79400952,0.8587002,-0.6274573,0.817695
79423629,0.8982507,-0.6615776,0.7662863
79446585,0.8963806,-0.64747566,0.8686791
79467584,0.92578185,-0.647449,0.7224823
79491584,0.91920096,-0.64673436,0.75756353
79515593,0.97154623,-0.63619936,0.9813401
79539591,0.90318805,-0.6153803,0.821197
79563592,0.8846559,-0.6118728,0.6975313
79587586,0.91713333,-0.6717819,0.70814514
79611635,0.9149252,-0.70238835,0.8290477
79633732,0.861695,-0.7026266,0.81634164
79657989,0.8496132,-0.67835325,0.8273667
79681690,0.82046854,-0.648905,0.79688966
79703585,0.7806011,-0.60240984,0.8656492
79726586,0.7908073,-0.56778646,0.7947005
79747588,0.82811165,-0.59039223,0.8662729
79770253,0.85044664,-0.59812814,0.7817326
79793716,0.8668142,-0.5995245,0.86129594
79817743,0.8666982,-0.62344056,0.86764884
79842261,0.84661716,-0.6061884,0.82878107
79865710,0.835428,-0.6309978,0.7909299
79886584,0.81227076,-0.61362654,0.7578728
79907591,0.82193583,-0.65324616,0.87917525
79929705,0.81977224,-0.6481308,0.8350119
79950587,0.81097865,-0.6302235,0.8286183
79973214,0.8494748,-0.6180869,0.8349442
79997226,0.8115187,-0.61880153,0.7990495
80021254,0.8323205,-0.63054794,0.96107453
80045238,0.848407,-0.60788256,0.89341074
80069225,0.83318186,-0.61948323,0.91391087
80092615,0.852117,-0.6327515,0.8528983
80114589,0.8218956,-0.617134,0.88137573
80136660,0.8124438,-0.64057344,0.9110258
80159584,0.8452169,-0.6256707,0.9054524
80180624,0.8135227,-0.6207339,0.85194933
80202817,0.8031123,-0.62807953,0.934079
80226498,0.7792398,-0.60119206,0.77755976
80247586,0.79273874,-0.6207339,0.8515697
80268621,0.8199352,-0.64230055,0.8260925
80290805,0.86525214,-0.7062861,0.7841996
80314503,0.84610057,-0.69878846,0.8570642
80336635,0.8232826,-0.6337044,0.8054363
80359594,0.8644108,-0.6034552,0.66764396
80380638,0.89444923,-0.5945282,0.81180984
80402814,0.87965703,-0.5945878,0.80860627
80426459,0.84850395,-0.57522464,0.7254734
80447590,0.8532115,-0.57085043,0.7929678
80468637,0.83760935,-0.588043,0.83411735
80490840,0.8333794,-0.60497075,0.7404746
80511586,0.88277245,-0.6338235,0.80065596
80532631,0.9248669,-0.6584541,0.77257836
80554851,0.9111091,-0.67439604,0.8753641
80576681,0.9454344,-0.6642247,0.7848098
80597629,0.8914031,-0.65756077,0.815969
80619663,0.94252664,-0.64325345,0.7813962
80643320,0.9204104,-0.62373835,0.85396254
80665585,0.8990898,-0.6261471,0.88296866
80688619,0.9078766,-0.6022641,0.7271069
80710822,0.8849024,-0.58480036,0.8466539
80734798,0.8864556,-0.58652747,0.7616121
80757593,0.90420675,-0.6135074,0.7654188
80779595,0.8952481,-0.6074391,0.7680667
80803642,0.8919621,-0.5950642,0.7853634
80824640,0.91589695,-0.62261313,0.61321485
80846796,0.93086654,-0.63748294,0.7693274
80867594,0.9507378,-0.64247924,0.81968105
80888621,0.91834617,-0.6397727,0.8043612
80910818,0.92477095,-0.62829113,0.77783334
80934832,0.9491589,-0.6500366,0.7435044
80958848,0.9308632,-0.6464961,0.7695104
80981585,0.92768544,-0.63123596,0.7808811
81006818,0.9071223,-0.61344784,0.7684056
81029585,0.9037883,-0.5859915,0.7883297
81049586,0.89696646,-0.59732735,0.67398345
81070591,0.890333,-0.59354866,0.7119362
81092635,0.8590349,-0.591762,0.7993682
81112639,0.9053895,-0.6028001,0.7006604
81132635,0.90117973,-0.62546545,0.76854116
81154585,0.8886113,-0.61267364,0.80620235
81177585,0.87997615,-0.6009539,0.79113334
81198585,0.88704365,-0.59018695,0.72941583
81221596,0.88640094,-0.5894723,0.7646055
81242585,0.88855666,-0.6156185,0.8091959
81263640,0.8794919,-0.60642666,0.81764764
81286591,0.8595169,-0.59229803,0.7729759
81309586,0.8761591,-0.5759659,0.8375108
81330586,0.87123275,-0.59211934,0.78199023
81353585,0.84020245,-0.5906305,0.8547599
81374585,0.8411598,-0.6097288,0.80234134
81398585,0.87467057,-0.628708,0.75638413
81421586,0.8471997,-0.6248699,0.7968898
81441586,0.8131969,-0.6323942,0.86978817
81463607,0.81304514,-0.60818034,0.8780976
81487627,0.80429393,-0.6203766,0.8693815
81511640,0.81142163,-0.5916429,0.80436546
81535591,0.8367613,-0.5630551,0.88054895
81559591,0.8391927,-0.5684682,0.91005
81583592,0.82429343,-0.56840867,0.91271126
81607598,0.82795876,-0.5691829,0.8746433
81630585,0.81952786,-0.5847408,0.8483934
81650592,0.8167752,-0.5789703,0.8364873
81670585,0.83533764,-0.5858128,0.7958799
81692919,0.83420396,-0.6085973,0.85794985
81715585,0.81639135,-0.60258853,0.8575025
81738591,0.8148137,-0.6071413,0.7812649
81758588,0.8077529,-0.5998818,0.8426165
81780945,0.78373873,-0.5815578,0.85647905
81801586,0.7982017,-0.6021716,0.8777045
81823592,0.7874007,-0.59134513,0.8185941
81847592,0.8169738,-0.6212699,0.8256113
81871591,0.79317385,-0.60318404,0.82774395
81894585,0.79618984,-0.6212699,0.8252317
81914584,0.83149046,-0.6419432,0.84390426
81935584,0.8022342,-0.62439346,0.8195362
81958585,0.7783181,-0.6302235,0.82802176
81981702,0.80934745,-0.63471687,0.7553131
82002589,0.80859536,-0.6398918,0.7964898
82023585,0.79709595,-0.6343,0.77562356
82045655,0.7870058,-0.64500725,0.8402193
82070041,0.79919595,-0.6663953,0.82326835
82093758,0.78563786,-0.6618158,0.75249577
82117698,0.8150045,-0.67047167,0.7708159
82138584,0.81312776,-0.67439604,0.8735746
82159584,0.79914236,-0.6663357,0.82620084
82181672,0.8093307,-0.6797826,0.756228
82202585,0.79431653,-0.70063466,0.7651813
82223584,0.7918317,-0.69516194,0.7386128
82245699,0.7805677,-0.6925415,0.86747915
82266585,0.79126036,-0.7062532,0.93251544
82287583,0.7961006,-0.7173508,0.83011603
82309701,0.7674315,-0.70646477,0.7736127
82330589,0.80380636,-0.7193161,0.73345274
82351586,0.81764334,-0.6941495,0.788953
82373966,0.81235117,-0.685851,0.7534718
82397679,0.8256392,-0.69614136,0.8390288
82419592,0.8212563,-0.6918597,0.75375646
82442017,0.8300499,-0.709767,0.7601501
82466028,0.7872513,-0.7053927,0.82677686
82490066,0.78752244,-0.6966773,0.8119315
82510589,0.7598462,-0.66856587,0.86367905
82530596,0.795892,-0.7020906,0.84154093
82552615,0.7979596,-0.6770431,0.89095926
